번호,구분,항목,학교명,주소,위도,경도,우편번호,전화번호,팩스번호,관할교육청,공립사립,사이트,홈페이지
8,고,G,계룡디지텍고등학교,대전광역시 동구 소랑길 64 (삼성동),36.3365648,127.434023,34613,042-630-6000,042-627-5328,시교육청,사립,Y,http://krdhs.djsch.kr
29,고,G,남대전고등학교,대전광역시 중구 보문로111번길 63 (대사동),36.3107358,127.4275707,35051,042-253-7111,042-222-1557,시교육청,사립,Y,http://ndjhs.djsch.kr
39,고,G,대덕고등학교,대전광역시 유성구 대덕대로556번길 158 (도룡동),36.3871925,127.3813672,34121,042-860-0307,042-861-1413,시교육청,공립,Y,http://daedeokhs.djsch.kr
42,고,G,대덕소프트웨어마이스터고등학교,대전광역시 유성구 가정북로 76 (장동),36.3918825,127.3633497,34111,042-866-8822,042-867-9900,시교육청,공립,Y,http://dsmhs.djsch.kr
51,고,G,대전가오고등학교,대전광역시 동구 신기로 71 (가오동),36.3106418,127.4545028,34691,042-280-3700,042-280-3790,시교육청,공립,Y,http://gaohs.djsch.kr
65,고,G,대전고등학교,대전광역시 중구 대흥로 110 (대흥동),36.3220349,127.4240267,34932,042-220-6100,042-220-6130,시교육청,공립,Y,http://djhs.djsch.kr
66,고,G,대전공업고등학교,대전광역시 유성구 진잠로42번길 35 (원내동),36.2969673,127.3185722,34231,042-540-2100,042-543-2387,시교육청,공립,Y,http://daegonghs.djsch.kr
67,고,G,대전과학고등학교,대전광역시 유성구 과학로 46 (구성동),36.3740616,127.3712181,34142,042-860-0214,042-863-5488,시교육청,공립,Y,http://djshs.djsch.kr
68,고,G,대전관저고등학교,대전광역시 서구 관저북로 94 (관저동),36.3107441,127.3380408,35358,042-540-2800,042-545-2866,시교육청,공립,Y,http://gjhs.djsch.kr
75,고,G,대전괴정고등학교,대전광역시 서구 가장로 15 (괴정동),36.3400127,127.3791505,35291,042-520-8413,042-528-9897,시교육청,공립,Y,http://goejeonghs.djsch.kr
79,고,G,대전구봉고등학교,대전광역시 서구 관저서로 36 (관저동),36.2956239,127.3309218,35376,042-540-3745,042-540-3799,시교육청,공립,Y,http://gubonghs.djsch.kr
83,고,G,대전국제통상고등학교,대전광역시 중구 서문로 47 (문화동),36.3135018,127.40741,34998,042-580-2585,042-582-6064,시교육청,공립,Y,http://dimhs.djsch.kr
93,고,G,대전노은고등학교,대전광역시 유성구 노은동로99번길 55 (노은동),36.3689947,127.3192306,34091,042-717-3600,042-476-1448,시교육청,공립,Y,http://noeunhs.djsch.kr
103,고,G,대전대성고등학교,대전광역시 중구 목동로 23 (목동),36.3325444,127.4074351,35825,042-250-3853,042-250-3899,시교육청,사립,Y,http://www.daeseong.hs.kr
104,고,G,대전대성여자고등학교,대전광역시 동구 대성2길 20 (가양동),36.3377093,127.4406962,34601,042-670-2000,042-632-0551,시교육청,사립,Y,http://dsghs.djsch.kr
107,고,G,대전대신고등학교,대전광역시 서구 오량1길 98 (복수동),36.3090805,127.3811451,35406,042-585-5901,042-583-8061,시교육청,사립,Y,http://dshs.kr
126,고,G,대전도안고등학교,대전광역시 유성구 원신흥남로 51 (원신흥동),36.3368208,127.3374176,34194,042-820-8600,-,시교육청,공립,Y,http://doanhs.djsch.kr
133,고,G,대전동산고등학교,대전광역시 중구 문화로 183 (문화동),36.3160523,127.4045008,34960,042-587-5211,042-587-5228,시교육청,사립,Y,http://djdongsanhs.djsch.kr
138,고,G,대전동신과학고등학교,대전광역시 동구 옥천로 423 (비룡동),36.3471628,127.4737045,34500,042-717-9400,042-717-9409,시교육청,공립,Y,http://ddsciencehs.djsch.kr
145,고,G,대전둔산여자고등학교,대전광역시 서구 갈마역로 33 (갈마동),36.3530976,127.3732385,35231,042-479-3800,042-488-6032,시교육청,공립,Y,http://djdunsan-ghs.djsch.kr
148,고,G,대전둔원고등학교,대전광역시 서구 대덕대로 101 (갈마동),36.3427902,127.373418,35273,042-530-3661,042-538-7120,시교육청,공립,Y,http://dunwonhs.djsch.kr
152,고,G,대전만년고등학교,대전광역시 서구 만년로 6 (만년동),36.3672757,127.3735349,35200,042-479-9600,042-488-7387,시교육청,공립,Y,http://mannyonhs.djsch.kr
175,고,G,대전반석고등학교,대전광역시 유성구 지족로 332 (지족동),36.3868436,127.3135398,34076,042-824-3022,042-824-3023,시교육청,공립,Y,http://banseokhs.djsch.kr
191,고,G,대전복수고등학교,대전광역시 서구 혜천로 66 (복수동),36.3030646,127.3733462,35409,042-580-1100,042-587-0603,시교육청,공립,Y,http://boksuhs.djsch.kr
224,고,G,대전생활과학고등학교,대전광역시 대덕구 동산초교로63번길 12 (오정동),36.3497526,127.4228656,34432,042-629-1300,042-636-3607,시교육청,사립,Y,http://djpshs.djsch.kr
239,고,G,대전성모여자고등학교,대전광역시 중구 대흥로 62 (대흥동),36.322771,127.4189482,34943,042-253-4134,042-222-4623,시교육청,사립,Y,http://seongmohs.djsch.kr
249,고,G,대전송촌고등학교,대전광역시 대덕구 선비마을로23번길 11 (송촌동),36.3634354,127.4459299,34404,042-620-5921,042-620-5909,시교육청,공립,Y,http://songchonhs.djsch.kr
260,고,G,대전신일여자고등학교,대전광역시 중구 부사로 48 (부사동),36.3083056,127.4348631,35058,042-221-1771,042-221-1776,시교육청,사립,Y,http://shinilhs.djsch.kr
268,고,G,대전여자고등학교,대전광역시 동구 용운로1번길 28-37 (대동),36.3297461,127.4471431,34656,042-630-5901,042-633-8846,시교육청,공립,Y,http://djghs.djsch.kr
269,고,G,대전여자상업고등학교,대전광역시 중구 대종로550번길 31 (선화동),36.3338534,127.421683,34831,042-254-4507,042-255-8319,시교육청,사립,Y,http://aramhs.djsch.kr
271,고,G,대전예술고등학교,대전광역시 유성구 월드컵대로308번길 33 (상대동),36.3464339,127.3327969,34198,042-825-2203,042-823-9547,시교육청,사립,Y,http://taejonarths.djsch.kr
276,고,G,대전외국어고등학교,대전광역시 서구 신갈마로 19 (내동),36.3366379,127.3654894,35280,042-537-0682,042-537-0687,시교육청,공립,Y,http://djflhs.djsch.kr
279,고,G,대전용산고등학교,대전광역시 유성구 용산2로 2-16 (용산동),36.4207782,127.3960279,34031,042-629-9201,042-934-9695,시교육청,공립,Y,http://dyshs.djsch.kr
304,고,G,대전이문고등학교,대전광역시 대덕구 석봉로 15 (석봉동),36.4476358,127.4228219,34317,042-930-0800,042-932-1633,시교육청,사립,Y,http://imunhs.djsch.kr
312,고,G,대전전민고등학교,대전광역시 유성구 전민로 63 (전민동),36.3980927,127.3984309,34053,042-870-0100,042-382-0255,시교육청,공립,Y,http://jeonminhs.djsch.kr
315,고,G,대전전자디자인고등학교,대전광역시 유성구 대덕대로 939 (화암동),36.4129598,127.3770185,34058,042-611-8311,042-864-1329,시교육청,공립,Y,http://djedhs.djsch.kr
318,고,G,대전제일고등학교,대전광역시 서구 배재로46번길 77 (도마동),36.3133418,127.3723642,35339,042-527-9661,042-527-9663,시교육청,사립,Y,http://jeilhs.djsch.kr
323,고,G,대전중앙고등학교,대전광역시 중구 대종로 634 (중촌동),36.3388858,127.4124062,34804,042-226-7604,042-252-6188,시교육청,사립,Y,http://djjahs.djsch.kr
330,고,G,대전지족고등학교,대전광역시 유성구 노은서로 202 (지족동),36.3779231,127.3157279,34082,042-717-1508,042-476-2710,시교육청,공립,Y,http://jijokhs.djsch.kr
335,고,G,대전체육고등학교,대전광역시 유성구 원신흥로40번길 6 (원신흥동),36.3367031,127.3430199,34195,042-820-5200,042-825-3446,시교육청,공립,Y,http://djcheyukhs.djsch.kr
347,고,G,대전한빛고등학교,대전광역시 중구 대둔산로 119-37 (안영동),36.2757064,127.3808265,35085,042-581-0403,042-585-2537,시교육청,사립,Y,http://hanviths.djsch.kr
360,고,G,동대전고등학교,대전광역시 대덕구 청림길 33 (중리동),36.3563128,127.4240027,34427,042-630-6140,042-635-5908,시교육청,공립,Y,http://ddjhs.djsch.kr
367,고,G,동방고등학교,대전광역시 서구 계백로 1106 (관저동),36.2981275,127.3352838,35380,042-333-5803,042-541-0289,시교육청,사립,Y,http://dbhs.djsch.kr
371,고,G,동아마이스터고등학교,대전광역시 동구 충정로 97 (자양동),36.3436037,127.454214,34511,042-620-1111,042-624-9010,시교육청,사립,Y,http://dongahs.djsch.kr
383,고,G,명석고등학교,대전광역시 동구 우암로 380 (가양동),36.352814,127.4546028,34503,042-623-2111,042-621-0518,시교육청,사립,Y,http://mshs.djsch.kr
397,고,G,보문고등학교,대전광역시 동구 우암로 57 (삼성동),36.3368587,127.4235438,34619,042-620-6600,042-672-9571,시교육청,사립,Y,http://bomoonhs.djsch.kr
423,고,G,서대전고등학교,대전광역시 서구 월평동로 60 (월평동),36.3604929,127.3692303,35216,042-479-2023,042-488-9086,시교육청,사립,Y,http://sdjhs.djsch.kr
424,고,G,서대전여자고등학교,대전광역시 서구 배재로197번길 20 (도마동),36.327711,127.3695681,35344,042-520-6121,042-531-5905,시교육청,사립,Y,http://seodaejeonhs.djsch.kr
428,고,G,서일고등학교,대전광역시 서구 계백로828번길 30 (관저동),36.2979484,127.3237508,35377,042-543-3963,042-543-4379,시교육청,사립,Y,http://seoilhs.djsch.kr
429,고,G,서일여자고등학교,대전광역시 서구 구봉산북로 22 (관저동),36.2936852,127.3238522,35377,042-540-7749,042-543-7429,시교육청,사립,Y,http://seoil-ghs.djsch.kr
447,고,G,신탄진고등학교,대전광역시 대덕구 신탄진북로 14 (신탄진동),36.4489023,127.4370322,34308,042-602-3800,042-933-0273,시교육청,공립,Y,http://shintanjinhs.djsch.kr
472,고,G,우송고등학교,대전광역시 동구 동대전로131번길 53 (자양동),36.3350167,127.4432897,34609,042-620-5200,042-626-0061,시교육청,사립,Y,http://wshs.djsch.kr
476,고,G,유성고등학교,대전광역시 유성구 유성대로654번길 130 (구암동),36.3493198,127.3350862,34181,042-710-6154,042-824-0262,시교육청,공립,Y,http://yshs.djsch.kr
477,고,G,유성생명과학고등학교,대전광역시 유성구 월드컵대로 270 (구암동),36.3475335,127.3286331,34197,042-539-5812,042-822-7066,시교육청,공립,Y,http://ysbsths.djsch.kr
478,고,G,유성여자고등학교,대전광역시 유성구 은구비로138번길 70 (죽동),36.3837746,127.3287073,34097,042-820-1161,042-820-1199,시교육청,사립,Y,http://yuseongghs.djsch.kr
496,고,G,중일고등학교,대전광역시 유성구 배울2로 68 (관평동),36.4203804,127.3888809,34023,042-935-0356,042-935-7919,시교육청,사립,Y,http://jungilhs.djsch.kr
505,고,G,청란여자고등학교,대전광역시 중구 보문로95번길 40 (부사동),36.3105258,127.4296446,35051,042-253-8842,042-253-6928,시교육청,사립,Y,http://chranhs.djsch.kr
508,고,G,충남고등학교,대전광역시 서구 문정로 171 (둔산동),36.3500199,127.3943901,35249,042-488-8013,042-488-8019,시교육청,공립,Y,http://chungnamhs.djsch.kr
509,고,G,충남기계공업고등학교,대전광역시 중구 산성로 154 (문화동),36.3116893,127.4034104,34999,042-580-2114,042-586-7700,시교육청,공립,Y,http://chungnam-mhhs.djsch.kr
510,고,G,충남여자고등학교,대전광역시 중구 선화로43번길 77 (목동),36.3286246,127.410481,34849,042-229-3100,042-257-8444,시교육청,공립,Y,http://cnghs.djsch.kr
536,고,G,한밭고등학교,대전광역시 서구 신갈마로141번길 58 (갈마동),36.3473437,127.3646182,35277,042-601-6152,042-536-6441,시교육청,공립,Y,http://hanbaths.djsch.kr
553,고,G,호수돈여자고등학교,대전광역시 중구 선화로 50 (용두동),36.3264621,127.4146127,34859,042-221-2613,042-252-0397,시교육청,사립,Y,http://holstonhs.djsch.kr
204,기타,K,대전산업정보고등학교,대전광역시 서구 괴정로 191 (용문동),36.337093,127.3835915,35306,042-250-0099,042-537-8683,시교육청,공립,Y,http://dpsc.djsch.kr
272,기타,K,대전예지중고등학교,대전광역시 서구  도솔로 376(괴정동),36.3341924,127.3822074,35299,042-535-0736,042-532-0736,시교육청,사립,Y,http://yejihs.djsch.kr
277,기타,K,대전외국인학교,대전광역시 유성구 용산2로 77 (용산동),36.4209551,127.397038,34035,042-633-3663,042-631-5732,시교육청,사립,Y,http://www.tcis.or.kr
417,기타,K,새소리음악중·고등학교,대전광역시 서구 변동중로 24-2 (도마동),36.3271684,127.3728047,35328,042-533-6470,042-537-4200,시교육청,사립,Y,http://www.higracias.net
1,유,U,BK꿈사랑유치원,대전광역시 유성구 유성대로155번길 46-2 (교촌동),36.3109992,127.31486,34224,042-542-2537,042-545-2533,서부교육청,사립,N,
4,유,U,가수원초등학교병설유치원,대전광역시 서구 벌곡로 1359 (가수원동),36.3029292,127.3534059,35387,042-542-3516,042-541-6415,서부교육청,공립,N,
6,유,U,건양대학교부속유치원,대전광역시 서구 관저동로 158 (관저동),36.2992196,127.3403195,35365,042-541-1123,042-541-1124,서부교육청,사립,N,
7,유,U,경성유치원,대전광역시 서구 대덕대로 150 (갈마동),36.3445229,127.3771451,35265,042-522-6324,042-535-2119,서부교육청,사립,N,
10,유,U,구즉초등학교병설유치원,대전광역시 유성구  구룡달전로 34 (봉산동),36.4406044,127.3824649,34006,042-935-6009,042-935-6599,서부교육청,공립,N,
11,유,U,굿모닝유치원,대전광역시 중구 어덕마을로 84-12 (중촌동),36.33812,127.4053622,34809,042-222-2772,042-222-2774,동부교육청,사립,N,
12,유,U,그린유치원,대전광역시 유성구 구즉로 25 (송강동),36.4328034,127.384048,34011,042-934-3113,042-934-3110,서부교육청,사립,N,
13,유,U,금동유치원,대전광역시 중구 태평로152번길 63 (태평동),36.3274091,127.398068,34822,042-533-5800,042-533-2882,동부교육청,사립,N,
15,유,U,금성초등학교병설유치원,대전광역시 유성구  신성로72번길 5 (신성동),36.3894242,127.3500226,34116,042-861-8231,042-863-0709,서부교육청,공립,N,
19,유,U,기성초등학교병설유치원,대전광역시 서구 기성초교길 42 (매노동),36.248798,127.3376612,35426,042-585-4611,042-585-4605,서부교육청,공립,N,
20,유,U,꾸러기유치원,대전광역시 대덕구 오정로78번길 62 (오정동),36.3550731,127.4122326,34439,042-625-2505,042-624-2515,동부교육청,사립,N,
21,유,U,꿈나무유치원,대전광역시 동구 옻밭2길 77 (판암동),36.3208191,127.4494748,34670,042-283-1937,042-282-6800,동부교육청,사립,N,
22,유,U,꿈나무유치원,대전광역시 서구 만년남로 8 (만년동),36.3659794,127.378123,35202,042-485-5100,042-487-6203,서부교육청,사립,N,
23,유,U,꿈내리유치원,대전광역시 중구 당디로 45 (산성동),36.3087344,127.3925649,34997,042-584-6000,042 -584-5603,동부교육청,사립,N,
24,유,U,꿈내리유치원,대전광역시 서구 원도안로 242번길 24 (도안동),36.3165224,127.3446659,35354,042-546-2100,042-546-9933,서부교육청,사립,N,
25,유,U,꿈에그린유치원,대전광역시 유성구 배울2로 61 (관평동),36.4212717,127.3916929,34020,042-934-3242,042-934-3243,서부교육청,사립,N,
26,유,U,나래유치원,대전광역시 서구 정림서로 162-15 (정림동),36.3034815,127.3645633,35397,042-581-2345,042-581-2367,서부교육청,사립,N,
27,유,U,나무와숲유치원,대전광역시 동구 백룡로 65 (용운동),36.3335501,127.4529067,34519,042-283-0670,042-285-0671,동부교육청,사립,N,
28,유,U,나은유치원,대전광역시 서구 관저북로 92 (관저동),36.3098696,127.3373411,35358,042-545-3969,042-545-3970,서부교육청,사립,N,
31,유,U,남선초등학교병설유치원,대전광역시 유성구  계백로93번길 277-29 (송정동),36.2875973,127.2646212,34204,042-825-0893,042-825-0897,서부교육청,공립,N,
32,유,U,노란풍차유치원,대전광역시 서구 청사로 5 (월평동),36.3608875,127.3649494,35210,042-483-4111,042-487-3116,서부교육청,사립,N,
33,유,U,노은누리유치원,대전광역시 유성구  노은동로99번길 35(노은동),36.3688795,127.321476,34091,042-825-1496,042-824-9190,서부교육청,공립,Y,https://nenurikg.djsch.kr
34,유,U,노은유치원,대전광역시 유성구 노은서로96번길 32 (노은동),36.3682474,127.3157179,34092,042-477-7070,042-471-7071,서부교육청,사립,N,
35,유,U,녹원유치원,대전광역시 서구 계룡로 491번길 39 (둔산동),36.3472709,127.3818498,35235,042-485-6100~1,042-485-6102,서부교육청,사립,N,
36,유,U,누리유치원,대전광역시 서구 청사로 70 (월평동),36.3588693,127.3713615,35218,042-485-4697,042-485-4698,서부교육청,사립,N,
37,유,U,느리울유치원,대전광역시 서구 구봉로147번길 64 (관저동),36.2992558,127.3386734,35378,042-544-8314,042-544-8315,서부교육청,사립,N,
38,유,U,다모아유치원,대전광역시 서구 월평동로 83 (월평동),36.3620173,127.3669292,35210,042-489-2100,042-489-2101,서부교육청,사립,N,
40,유,U,대덕국제유치원,대전광역시 유성구 죽동로 326 (죽동),36.3741859,127.339262,34127,042-602-7700,042-602-7702,서부교육청,사립,N,
41,유,U,대덕대학교부속유치원,대전광역시 유성구 가정북로 68 (장동),36.390533,127.3656637,34111,042-866-0266,042-864-0266,서부교육청,사립,N,
46,유,U,대덕초등학교병설유치원,대전광역시 유성구  대덕대로556번길 102 (도룡동),36.3851645,127.3818502,34121,042-862-4339,042-861-2855,서부교육청,공립,N,
47,유,U,대자연유치원,대전광역시 서구 관저북로 52 (관저동),36.3063645,127.3386145,35359,042-545-6633,042-545-6868,서부교육청,사립,N,
48,유,U,대전가양유치원,대전광역시 동구 가양로 61 (가양동),36.3418801,127.4412412,34593,042-633-3547,042-633-6380,동부교육청,공립,Y,http://djgayangkg.djsch.kr
54,유,U,대전가오초등학교병설유치원,대전광역시 동구 신기로 112 (가오동),36.3102913,127.4586711,34680,042-281-7004,042-286-1967,동부교육청,공립,N,
57,유,U,대전가장초등학교병설유치원,대전광역시 서구 가장로 150 (가장동),36.3307119,127.388332,35311,042-533-8116,042-527-7606,서부교육청,공립,N,
58,유,U,대전갈마유치원,대전광역시 서구 월평동로 2 (갈마동),36.356774,127.3693282,35227,042-477-0664,042-477-1020,서부교육청,공립,Y,http://galmakg.djsch.kr
64,유,U,대전계산초등학교병설유치원,대전광역시 유성구  학하서로 74 (계산동),36.3433998,127.3005486,34209,042-826-6185,042-826-6184,서부교육청,공립,N,
71,유,U,대전관저초등학교병설유치원,대전광역시 서구 관저동로 161 (관저동),36.3064008,127.3399704,35359,042-544-2161,042-545-2675,서부교육청,공립,N,
74,유,U,대전관평초등학교병설유치원,대전광역시 유성구  테크노4로 132 (관평동),36.4237326,127.3870581,34021,042-671-0067,042-671-0068,서부교육청,공립,N,
78,유,U,대전교촌초등학교병설유치원,대전광역시 유성구  진잠로149번길 42 (교촌동),36.3058894,127.3168032,34225,042-544-1675,042-544-0649,서부교육청,공립,N,
82,유,U,대전구봉초등학교병설유치원,대전광역시 서구 관저로 75 (관저동),36.2997949,127.3299654,35372,042-542-0169,042-542-0194,서부교육청,공립,N,
86,유,U,대전글꽃초등학교병설유치원,대전광역시 중구 계룡로918번길 97 (문화동),36.3186792,127.4102708,34957,042-250-4781,042-251-8216,동부교육청,공립,N,
88,유,U,대전금동초등학교병설유치원,대전광역시 서구 관저로 45 (관저동),36.2977253,127.3263858,35371,042-542-3331,042-542-3335,서부교육청,공립,N,
92,유,U,대전내동초등학교병설유치원,대전광역시 서구 동서대로1063번길 13 (내동),36.3309531,127.3792636,35315,042-535-8794,042-527-7961,서부교육청,공립,N,
98,유,U,대전느리울초등학교병설유치원,대전광역시 서구 관저로 196 (관저동),36.298447,127.3441714,35381,042-544-0744,042-544-0785,서부교육청,공립,N,
111,유,U,대전대암초등학교병설유치원,대전광역시 동구 동부로55-61,36.323515,127.4571986,34664,042-280-5290,042-285-0565,동부교육청,공립,N,
114,유,U,대전대정초등학교병설유치원,대전광역시 유성구  대정로28번길 55(대정동),36.3151997,127.3233658,34219,042-540-2715,042-545-4388,서부교육청,공립,N,
118,유,U,대전대화초등학교병설유치원,대전광역시 대덕구 대화로 242-36 (대화동),36.3625497,127.4113072,34375,042-636-7127,042-626-7921,동부교육청,공립,N,
123,유,U,대전도마초등학교병설유치원,대전광역시 서구 배재로172번길 23 (도마동),36.3237958,127.3712413,35329,042-523-5235,042-532-5419,서부교육청,공립,N,
124,유,U,대전도솔유치원,대전광역시 서구 원도안로 80 (가수원동),36.3165224,127.3446659,35367,042-545-7711,042-544-0171,서부교육청,공립,Y,http://dosolkg.djsch.kr
129,유,U,대전도안초등학교병설유치원,대전광역시 서구 원도안로 200 (도안동),36.3216343,127.3446688,35355,042-543-7807,042-543-7124,서부교육청,공립,N,
136,유,U,대전동산초등학교병설유치원,대전광역시 대덕구 동산초교로63번길 50 (오정동),36.3505409,127.4215039,34432,042-623-3125,042-627-6358,동부교육청,공립,N,
141,유,U,대전동화초등학교병설유치원,대전광역시 유성구  관평2로 43 (관평동),36.4229545,127.3896168,34020,042-935-9741,042-935-9742,서부교육청,공립,N,
144,유,U,대전두리초등학교병설유치원,대전광역시 유성구  와룡로 37 (송강동),36.4292447,127.3798894,34005,042-936-0836,042-936-0838,서부교육청,공립,N,
155,유,U,대전만년초등학교병설유치원,대전광역시 서구 만년남로 14 (만년동),36.3671313,127.3772881,35202,042-482-0745,042-486-0746,서부교육청,공립,N,
160,유,U,대전목동초등학교병설유치원,대전광역시 중구 목중로19번길 70 (목동),36.3346952,127.4082543,34816,042-253-4002,042-257-5245,동부교육청,공립,N,
162,유,U,대전목상초등학교병설유치원,대전광역시 대덕구 대덕대로1486번길 117 (목상동),36.4457026,127.412451,34323,042-934-6320,042-934-6314,동부교육청,공립,N,
164,유,U,대전목양초등학교병설유치원,대전광역시 중구 목동로 69 (목동),36.3367817,127.404831,34818,042-257-9573,042-257-9592,동부교육청,공립,N,
166,유,U,대전문성초등학교병설유치원,대전광역시 중구 유등천동로292번길 89-14 (산성동),36.3088121,127.3904664,34996,042-583-5346,042-583-5344,동부교육청,공립,N,
170,유,U,대전문창유치원,대전광역시 중구 문창로 55 (부사동),36.3172917,127.4336568,35027,042-226-2036,042-256-9127,동부교육청,공립,Y,http://mchkg.djsch.kr
174,유,U,대전문화초등학교병설유치원,대전광역시 중구 문화로78번안길 70 (문화동),36.3113634,127.3980978,34992,042-585-3227,042-582-9975,동부교육청,공립,N,
177,유,U,대전반석초등학교병설유치원,대전광역시 유성구  반석동로 30 (반석동),36.3899916,127.3130729,34068,042-824-6482,042-824-6441,서부교육청,공립,N,
182,유,U,대전버드내초등학교병설유치원,대전광역시 중구 태평로 21 (태평동),36.3192504,127.3915311,34890,042-536-1868,042-532-0873,동부교육청,공립,N,
187,유,U,대전변동초등학교병설유치원,대전광역시 서구 유등로 373 (변동),36.3246095,127.3848534,35317,042-522-2391,042-527-0838,서부교육청,공립,N,
188,유,U,대전보건대학교부속유치원,대전광역시 동구 충정로 21 (가양동),36.3493291,127.4545495,34504,042-623-0210,null,동부교육청,사립,N,
195,유,U,대전봉명초등학교병설유치원,대전광역시 유성구  계룡로132번길 62 (봉명동),36.3550332,127.336964,34188,042-820-8891,042-820-8888,서부교육청,공립,N,
198,유,U,대전봉산초등학교병설유치원,대전광역시 서구 신갈마로141번길 45 (갈마동),36.345201,127.365724,35281,042-523-2342,042-531-5511,서부교육청,공립,N,
201,유,U,대전비래초등학교병설유치원,대전광역시 대덕구 우암로492번길 65 (비래동),36.3614689,127.4508244,34414,042-639-6250,042-639-6248,동부교육청,공립,N,
203,유,U,대전산성초등학교병설유치원,대전광역시 중구 대둔산로 332 (사정동),36.2992178,127.3863257,35057,042-581-7610,042-585-0380,동부교육청,공립,N,
206,유,U,대전삼성초등학교병설유치원,대전광역시 동구 대전로867번길 12 (삼성동),36.3371383,127.4287912,34623,042-627-9780,042-624-3350,동부교육청,공립,N,
211,유,U,대전삼천초등학교병설유치원,대전광역시 서구 둔산북로 232-33 (둔산동),36.3542438,127.4009634,35245,042-485-7578,042-485-7578,서부교육청,공립,N,
213,유,U,대전상대초등학교병설유치원,대전광역시 유성구  월드컵대로 322(상대동),36.3472735,127.3366076,34199,042-826-1726,042-823-2442,서부교육청,공립,N,
215,유,U,대전상원초등학교병설유치원,대전광역시 유성구  상대서로 46 (상대동),36.3417026,127.3311203,34200,042-824-8548,042-824-8547,서부교육청,공립,N,
217,유,U,대전상지초등학교병설유치원,대전광역시 유성구  노은동로 165 (지족동),36.3752309,127.3221809,34085,042-477-5983,042-477-5988,서부교육청,공립,N,
220,유,U,대전새미래초등학교병설유치원,대전광역시 유성구  지족로 168 (지족동),36.3874242,127.3131611,34074,042-828-5604,042-828-5699,서부교육청,공립,Y,http://saemiraees.djsch.kr
223,유,U,대전샘머리초등학교병설유치원,대전광역시 서구 유등로 879 (둔산동),36.3632206,127.3932818,35205,042-601-0309,042-488-8457,서부교육청,공립,N,
229,유,U,대전석교초등학교병설유치원,대전광역시 중구 대종로204번길 12 (석교동),36.3082273,127.4456738,35036,042-271-6102,042-271-6103,동부교육청,공립,N,
232,유,U,대전선암초등학교병설유치원,대전광역시 서구 관저중로 61 (관저동),36.2974922,127.333991,35373,042-542-2230,042-542-2225,서부교육청,공립,N,
234,유,U,대전선유초등학교병설유치원,대전광역시 서구 관저남로 60,36.2984707,127.3360162,35384,042-540-5170,042-540-5199,서부교육청,공립,N,
236,유,U,대전선화초등학교병설유치원,대전광역시 중구 선화로 159 (선화동),36.3327965,127.4234162,34831,042-226-3355,042-253-1918,동부교육청,공립,N,
243,유,U,대전성천초등학교병설유치원,대전광역시 서구 갈마역로 139 (월평동),36.3632346,127.3735472,35211,042-488-7301,042-483-5027,서부교육청,공립,N,
246,유,U,대전송강초등학교병설유치원,대전광역시 유성구  송강로42번길 6 (송강동),36.4344058,127.3844067,34008,042-934-7322,042-934-7324,서부교육청,공립,N,
248,유,U,대전송림초등학교병설유치원,대전광역시 유성구  노은로410번길 123-14(하기동),36.3888182,127.3323123,34094,042-608-1575,042-824-3955,서부교육청,공립,N,
252,유,U,대전송촌초등학교병설유치원,대전광역시 대덕구 동춘당로54번길 35 (송촌동),36.3648203,127.4439321,34404,042-621-9041,042-621-9049,동부교육청,공립,Y,http://djsces.djsch.kr
254,유,U,대전수미초등학교병설유치원,대전광역시 서구 괴곡길 42 (괴곡동),36.2946505,127.361413,35416,042-581-5449,042-581-5426,서부교육청,공립,N,
256,유,U,대전수정초등학교병설유치원,대전광역시 유성구  노은서로 62 (노은동),36.365839,127.3134736,34145,042-828-5310,042-822-5304,서부교육청,공립,N,
259,유,U,대전신계초등학교병설유치원,대전광역시 서구 복수동로 26 (복수동),36.3018897,127.3780576,35412,042-586-5386,042-586-5383,서부교육청,공립,N,
263,유,U,대전신흥유치원,대전광역시 동구 동대전로46번길 76 (신흥동),36.3378151,127.4447644,34637,042-280-5120,042-280-9072,동부교육청,공립,Y,http://sinheungkg.djsch.kr
275,유,U,대전옥계초등학교병설유치원,대전광역시 중구 모암로 35 (옥계동),36.3011924,127.4490549,35070,042-272-3665,042-282-9878,동부교육청,공립,N,
281,유,U,대전용산초등학교병설유치원,대전광역시 유성구  배울2로 101 (용산동),36.4202163,127.3950711,34031,042-934-8120,042-934-8127,서부교육청,공립,N,
284,유,U,대전용운초등학교병설유치원,대전광역시 동구 용운로 204 (용운동),36.3263105,127.463755,34522,042-284-0993,042-285-0732,동부교육청,공립,N,
287,유,U,대전용전초등학교병설유치원,대전광역시 동구 계족로 505번길 49 (용전동),36.3562799,127.4304865,34541,042-627-9720,042-621-0317,동부교육청,공립,N,
289,유,U,대전원신흥유치원,대전광역시 유성구  원신흥로55번길 37 (원신흥동),36.3394066,127.342827,34193,042-826-9123,042-826-9120,서부교육청,공립,Y,http://djwshkg.djsch.kr
292,유,U,대전원앙초등학교병설유치원,대전광역시 서구 관저북로 97 (관저동),36.3112431,127.3370243,35358,042-544-8680,042-544-8678,서부교육청,공립,N,
296,유,U,대전월평초등학교병설유치원,대전광역시 서구 월평서로 22 (월평동),36.3556126,127.3578837,35221,042-483-3756,042-483-3764,서부교육청,공립,N,
298,유,U,대전유천초등학교병설유치원,대전광역시 서구 제비네6길 69 (도마동),36.3148642,127.3756728,35335,042-523-1848,042-527-0901,서부교육청,공립,N,
300,유,U,대전유평초등학교병설유치원,대전광역시 중구 수침로 123 (태평동),36.329963,127.397477,34877,042-530-0690,042-530-0678,동부교육청,공립,N,
303,유,U,대전은어송초등학교병설유치원,대전광역시 동구 대전로 396 (대성동),36.291461,127.4625852,34522,042-286-0846,042-286-0834,동부교육청,공립,N,
306,유,U,대전자양초등학교병설유치원,대전광역시 동구 계족로 184-55 (자양동),36.3400053,127.4481813,34609,042-620-3871,042-620-3838,동부교육청,공립,N,
311,유,U,대전장대초등학교병설유치원,대전광역시 유성구  문화원로19번길 16 (장대동),36.3617242,127.3395827,34166,042-824-0495,042-824-0498,서부교육청,공립,N,
320,유,U,대전죽동초등학교병설유치원,대전광역시 유성구 죽동로 52 (죽동),36.3770612,127.3328339,34127,042-820-3306,042-820-3399,서부교육청,공립,Y,https://jukdonges.djsch.kr
322,유,U,대전중리초등학교병설유치원,대전광역시 대덕구 중리북로 20 (법동),36.3678159,127.4271184,34386,042-621-9443,042-627-3804,동부교육청,공립,N,
324,유,U,대전중앙유치원,대전광역시 중구 문화로 269 (문화동),36.3180949,127.4140728,34964,042-252-7947,042-254-7947,동부교육청,사립,N,
333,유,U,대전지족초등학교병설유치원,대전광역시 유성구  노은서로 238 (지족동),36.3805992,127.3173585,34080,042-476-3146,042-476-3148,서부교육청,공립,N,
342,유,U,대전판암초등학교병설유치원,대전광역시 동구 옥천로180번길 32 (판암동),36.3152631,127.4607737,34676,042-281-5287,042-283-8872,동부교육청,공립,N,
343,유,U,대전푸른유치원,대전광역시 대덕구 계족로690번길 21 (법동),36.3728041,127.4300796,34396,042-636-8910,042-636-8911,동부교육청,사립,N,
346,유,U,대전하기초등학교병설유치원,대전광역시 유성구  송림로19번길 32 (하기동),36.3888161,127.3216884,34061,042-824-8096,042-824-8098,서부교육청,공립,N,
350,유,U,대전현암초등학교병설유치원,대전광역시 동구 현암로 19 (삼성동),36.3418804,127.4203113,34567,042-623-3071,042-623-3070,동부교육청,공립,N,
353,유,U,대전화정초등학교병설유치원,대전광역시 대덕구  한밭대로1024번길 20(오정동),36.357206,127.4119948,34457,042-627-6171,042-627-0210,동부교육청,공립,Y,http://hjes.djsch.kr
356,유,U,덕송초등학교병설유치원,대전광역시 유성구  현충원로 265 (덕명동),36.3613582,127.3016838,34151,042-822-8667,042-825-4404,서부교육청,공립,Y,http://deoksonges.djsch.kr
357,유,U,덕암유치원,대전광역시 대덕구 덕암북로70번길 55 (덕암동),36.4438797,127.4215591,34329,042-934-4455,042-934-4454,동부교육청,사립,N,
358,유,U,도안유치원,대전광역시 서구 도안북로 142 (도안동),36.3285275,127.3411546,35351,042-826-3288~9,042-825-3188,서부교육청,사립,N,
359,유,U,돌샘유치원,대전광역시 서구 계백로1300번길 124 (정림동),36.3030702,127.3692576,35399,042-582-8119,042-582-8119,서부교육청,사립,N,
361,유,U,동대전유치원,대전광역시 동구 대전로 646 (효동),36.3180386,127.4408006,34636,042-272-9922,042-272-9912,동부교육청,사립,N,
366,유,U,동명초등학교병설유치원,대전광역시 동구 천개동로 16 (추동),36.3741268,127.474439,34500,042-273-4976,042-274-1800,동부교육청,공립,Y,http://djdmes.djsch.kr
370,유,U,동심유치원,대전광역시 동구 새울로109번길 26-24 (용운동,36.32919,127.4613583,34524,042-283-2320,042-283-6393,동부교육청,사립,N,
372,유,U,동양유치원,대전광역시 중구 평촌로 18 (태평동),36.3222597,127.3958214,34888,042-537-3322,042-532-3701,동부교육청,사립,N,
373,유,U,동화나라유치원,대전광역시 중구 산성로138번길 65-18 (문화동),36.3104655,127.405423,35001,042-585-2536,042-586-2536,동부교육청,사립,N,
374,유,U,드림킨더유치원,대전광역시 유성구 월드컵대로308번길 45 (상대동),36.3469539,127.3329584,34198,042-864-1212,042-864-1213,서부교육청,사립,N,
375,유,U,라온유치원,대전광역시 유성구 학하로 33 (계산동),36.3353606,127.3144753,34207,042-825-0703,042-825-3799,서부교육청,사립,N,
376,유,U,래미안유치원,대전광역시 서구 가장로 106 (가장동),36.3336811,127.3843112,35297,042-538-2580,070-7500-3551,서부교육청,사립,N,
377,유,U,레드애플유치원,대전광역시 서구 도안동로 183 (도안동),36.3259999,127.3509287,35355,042-543-9970,042-543-9971,서부교육청,사립,N,
378,유,U,롯데유치원,대전광역시 서구 신갈마로 46 (내동),36.338985,127.3674164,35284,042-526-5000,042-534-7637,서부교육청,사립,N,
379,유,U,마키루키꿈샘유치원,대전광역시 유성구 봉명로 48 (원신흥동),36.3531722,127.3454011,34191,042-825-3833,042-825-3833,서부교육청,사립,N,
380,유,U,맑은아침유치원,대전광역시 서구 갈마로 262 (내동),36.3319163,127.3818259,35314,042-538-6700,042-538-6701,서부교육청,사립,N,
381,유,U,맑은해유치원,대전광역시 서구 신갈마로 102 (갈마동),36.3426393,127.369059,35282,042-525-0093,042-525-0094,서부교육청,사립,N,
382,유,U,메이킨더유치원,대전광역시 대덕구 한밭대로1159번길 20 (중리동),36.3599951,127.4275189,34395,042-635-4828,042-625-1829,동부교육청,사립,N,
384,유,U,명화유치원,대전광역시 서구 조달청길 180 (도마동),36.3190203,127.3819965,35331,042-526-3249,042-533-3105,서부교육청,사립,N,
385,유,U,무지개유치원,대전광역시 서구 도솔로 173 (도마동),36.3125001,127.3792707,35328,042-533-3373,042-533-3073,서부교육청,사립,N,
386,유,U,문지유치원,대전광역시 유성구  전민로 41(문지동),36.3959197,127.3994966,34053,042-862-9123,042-863-3331,서부교육청,공립,Y,http://munjikg.djsch.kr
388,유,U,문화유치원,대전광역시 중구 보문산로 209-13 (문화동),36.306515,127.4033808,35007,042-585-6035,042 -585-6036,동부교육청,사립,N,
389,유,U,미학유치원,대전광역시 유성구 학하남로 10 (계산동),36.3437243,127.3018264,34209,042-824-7941,042-824-7942,서부교육청,사립,N,
390,유,U,바다의별유치원,대전광역시 중구 보문산로 31 (산성동),36.3080506,127.3896071,34990,042-581-1341,042-584-3393,동부교육청,사립,N,
391,유,U,바움유치원,대전광역시 유성구  하기로 34-31(하기동),36.3894778,127.3408874,34095,042-863-1447,042-864-1447,서부교육청,사립,N,
392,유,U,배인유치원,대전광역시 중구 대종로 659 (중촌동),36.338886,127.412406,34812,042-256-4375,042-226-7888,동부교육청,사립,N,
393,유,U,배재대부속유치원,대전광역시 서구 배재로 155-40 (도마동),36.3201386,127.3679975,35345,042-520-5257,042-522-7671,서부교육청,사립,N,
394,유,U,버드내유치원,대전광역시 중구 태평로 15 (태평동),36.3182504,127.3893205,34890,042-537-4700,042-537-4703,동부교육청,사립,N,
395,유,U,벧엘유치원,대전광역시 유성구 월드컵대로253번안길 321 (구암동),36.3495504,127.3309218,34182,042-822-3668,042-334-3668,서부교육청,사립,N,
396,유,U,보람유치원,대전광역시 중구 계백로1615번길 34 (유천동),36.321031,127.4005884,34899,042-524-3261,042-524-4578,동부교육청,사립,N,
399,유,U,봉곡유치원,대전광역시 동구 동부로33번길 25 (판암동),36.3198861,127.4559174,34672,042-285-0574,042-285-0573,동부교육청,사립,N,
401,유,U,봉암초등학교병설유치원,대전광역시 유성구  궁동로 21 (궁동),36.3641745,127.3475817,34137,042-822-9121,042-822-8076,서부교육청,공립,Y,http://bongames.djsch.kr
402,유,U,브니엘쉐마유치원,대전광역시 유성구 외삼로 42번길 17 (외삼동),36.3976697,127.3162917,34063,042-825-7275,042-825-7275,서부교육청,사립,N,
403,유,U,비젤유치원,대전광역시 서구 가수원로 65번길 44 (가수원동),36.3002229,127.3509962,35385,042-541-6064,042-544-2733,서부교육청,사립,N,
404,유,U,사랑유치원,대전광역시 대덕구 신탄진로796번길 79 (신탄진동),36.4493882,127.4336296,34310,042-935-5252,042-931-1338,동부교육청,사립,N,
405,유,U,산내유치원,대전광역시 동구 산내로 1292 (낭월동),36.2792377,127.469951,34703,042-334-3001,042-334-3004,동부교육청,공립,Y,http://sannaekg.djsch.kr
407,유,U,산새소리유치원,대전광역시 서구 갈마로 183 (괴정동),36.3388734,127.3775419,35290,042-522-8874,042-522-8863,서부교육청,사립,N,
409,유,U,산서초등학교병설유치원,대전광역시 중구 남달미로 87 (목달동),36.2670647,127.4094249,35086,042-285-7221,042-285-4649,동부교육청,공립,Y,http://djsanseoes.djsch.kr
411,유,U,산흥초등학교병설유치원,대전광역시 동구 산내로 509 (상소동),36.2294309,127.4562254,34712,042-273-7223,042-273-6883,동부교육청,공립,Y,http://sanheunges.djsch.kr
412,유,U,삼문사금강유치원,대전광역시 중구 보문로115번길 29 (대사동),36.3120396,127.4273151,35045,042-221-3366,042-256-4467,동부교육청,사립,N,
413,유,U,삼부유치원,대전광역시 중구 태평로 77 (태평동),36.3247948,127.3911728,34885,042-525-8000,042-534-5445,동부교육청,사립,N,
414,유,U,상아유치원,대전광역시 서구 대덕대로 415 (만년동),36.36795,127.3797778,35201,042-485-6277,042-489-6278,서부교육청,사립,N,
415,유,U,새누리유치원,대전광역시 유성구 노은로410번길 103-16 (하기동),36.3877002,127.3309408,34094,042-867-5670,042-867-5672,서부교육청,사립,N,
416,유,U,새봄유치원,대전광역시 동구 용운로164번길 50 (용운동),36.3256457,127.4602211,34662,042-282-7807,042-274-1188,동부교육청,사립,N,
418,유,U,새싹나라유치원,대전광역시 유성구 은구비로155번길 14 (죽동),36.3809325,127.3249434,34097,042-826-8886,042-826-9888,서부교육청,사립,N,
420,유,U,새일초등학교병설유치원,대전광역시 대덕구 덕암로125번길 15 (덕암동),36.4316916,127.4195495,34333,042-932-2636,042-931-1415,동부교육청,공립,Y,http://saeiles.djsch.kr
421,유,U,색동유치원,대전광역시 대덕구 대덕대로1470번길 55 (목상동),36.4467494,127.413659,34322,042-932-8448,042-935-8448,동부교육청,사립,N,
422,유,U,샘머리유치원,대전광역시 서구 문예로 174 (둔산동),36.3633309,127.3920183,35205,042-472-1198,042-472-1194,서부교육청,사립,N,
426,유,U,서대전초등학교병설유치원,대전광역시 중구 선화로 17 (용두동),36.3266915,127.410676,34858,042-252-2669,042-255-4582,동부교육청,공립,Y,http://sdjes.djsch.kr
427,유,U,서원유치원,대전광역시 서구 청사로 254 (둔산동),36.3588457,127.3920699,35207,042-488-3456,042-488-3455,서부교육청,사립,N,
430,유,U,선사유치원,대전광역시 유성구 북유성대로155번길 45-14 (지족동),36.3800596,127.3212083,34078,042-826-9915,042-822-9905,서부교육청,사립,N,
431,유,U,성균관숲유치원,대전광역시 서구 정림서로1번길 79 (정림동),36.2891006,127.3654837,35416,042-582-8005,042-582-8006,서부교육청,사립,N,
433,유,U,성모유치원,대전광역시 동구 동서대로1692번길 64 (성남동),36.3465744,127.4373396,34578,042-624-3618,042-631-3619,동부교육청,사립,N,
434,유,U,성심유치원,대전광역시 중구 계백로1630번길 20 (유천동),36.3183278,127.4008752,34966,042-583-4714,042-583-4297,동부교육청,사립,N,
435,유,U,성언유치원,대전광역시 유성구 구즉로 28 (송강동),36.4301764,127.3849509,34010,042-933-8181,042-933-8182,서부교육청,사립,N,
436,유,U,세명유치원,대전광역시 서구 청사서로 11 (월평동),36.3588841,127.3755744,35219,042-489-5673,042-489-5692,서부교육청,사립,N,
438,유,U,세천초등학교병설유치원,대전광역시 동구 옥천로 610-12 (세천동),36.3394118,127.4939028,34501,042-273-4921,042-274-4921,동부교육청,공립,Y,http://secheones.djsch.kr
439,유,U,센트럴유치원,대전광역시 중구 서문로 86 (문화동),36.3158971,127.4079197,34962,042-242-1212,042-242-1213,동부교육청,사립,N,
440,유,U,소화유치원,대전광역시 중구 대종로 471 (대흥동),36.3258274,127.4231,34915,042-252-9614,042-255-9615,동부교육청,사립,N,
441,유,U,송강유치원,대전광역시 유성구 송강로42번길 61 (송강동),36.4356005,127.3827733,34008,042-934-6628,042-934-6626,서부교육청,사립,N,
442,유,U,송강청솔유치원,대전광역시 유성구 송강로42번길 61 (송강동),36.4356005,127.3827733,34008,042-933-7447,042-933-7448,서부교육청,사립,N,
443,유,U,슈비쯔유치원,대전광역시 유성구 반석로 140 (반석동),36.389612,127.2993802,34065,042-823-8866,042-826-0931,서부교육청,사립,N,
444,유,U,슈필렌유치원,대전광역시 유성구 반석서로71번길 3 (반석동),36.3939707,127.3073171,34066,042-824-9043,042-824-9044,서부교육청,사립,N,
445,유,U,신세대유치원,대전광역시 유성구 교촌로6번길 45-11 (교촌동),36.3016971,127.3140172,34225,042-546-2800,042-544-0038,서부교육청,사립,N,
449,유,U,신탄진용정초등학교병설유치원,대전광역시 대덕구 대청로 65 (신탄진동),36.4539743,127.4358464,34307,042-932-0182,042-933-6463,동부교육청,공립,Y,http://stj-yongjeonges.djsch.kr
452,유,U,아름유치원,대전광역시 서구 문정로 131 (탄방동),36.3478618,127.3939267,35251,042-364-7979,042-482-7317,서부교육청,사립,N,
453,유,U,아이꿈터유치원,대전광역시 서구 문예로 16 (탄방동),36.3478218,127.391369,35251,042-488-1255,042-488-1257,서부교육청,사립,N,
454,유,U,아이누리유치원,대전광역시 서구 관저서로 70 (관저동),36.2986443,127.3297036,35373,042-542-0111,042-543-0900,서부교육청,사립,N,
455,유,U,아이들세상유치원,대전광역시 동구 산내로 1396-34 (대성동),36.2868371,127.4659032,34699,042-286-6561,042-271-3554,동부교육청,사립,N,
456,유,U,아이비유치원,대전광역시 서구 신갈마로 264 (갈마동),36.3564628,127.3709842,35227,042-484-8448,0504-153-8448,서부교육청,사립,N,
457,유,U,아이캔유치원,대전광역시 유성구 노은서로142번길 24 (지족동),36.373162,127.3162198,34087,042-823-1516,042-824-1517,서부교육청,사립,N,
458,유,U,엑스포유치원,대전광역시 유성구 엑스포로 448 (전민동),36.3965234,127.4028876,34049,042-862-0157,042-862-0156,서부교육청,사립,N,
459,유,U,여울누리유치원,대전광역시 대덕구 석봉로3번길 50,36.449216,127.4223227,null,042-936-8816,null,동부교육청,공립,N,
460,유,U,열린교실유치원,대전광역시 서구 중반3길 49 (변동),36.3263418,127.3824789,35317,042-365-6808,042-335-6808,서부교육청,사립,N,
461,유,U,열린유치원,대전광역시 중구  서문로 32(문화동),36.3113455,127.4093116,35018,042-581-0857,042-581-0065,동부교육청,사립,N,
462,유,U,예랑유치원,대전광역시 대덕구 신탄진로218번길 62 (와동),36.4018923,127.4247791,34346,042-633-0272,042 -635-0520,동부교육청,사립,N,
463,유,U,예일유치원,대전광역시 유성구 진잠로139번길 31 (교촌동),36.3041936,127.3160697,34225,042-541-6323,042-541-6324,서부교육청,사립,N,
464,유,U,예지유치원,대전광역시 동구 비래서로42번길 58 (가양동),36.3517325,127.4476373,34527,042-634-0420,042-623-3709,동부교육청,사립,N,
466,유,U,오즈킨더유치원,대전광역시 중구 보문산로41번길 24 (산성동),36.3055165,127.3859524,34989,042-581-2211,042-581-6999,동부교육청,사립,N,
468,유,U,와동초등학교병설유치원,대전광역시 대덕구 신탄진로 189 (신대동),36.3999977,127.4204553,34349,042-627-6511,042-627-6568,동부교육청,공립,Y,http://djwadonges.djsch.kr
470,유,U,외삼초등학교병설유치원,대전광역시 유성구  반석동로 63 (반석동),36.3927409,127.3105094,34069,042-824-2236,042-824-2241,서부교육청,공립,Y,http://oesames.djsch.kr
471,유,U,용운유치원,대전광역시 동구 백룡로 104 (용운동),36.3335501,127.4529067,34652,042-284-2728,042-286-1146,동부교육청,사립,N,
473,유,U,우송유치원,대전광역시 동구 동대전로 171 (자양동),36.3378637,127.4460379,34606,042-629-6750,042-629-6753,동부교육청,사립,N,
475,유,U,우정유치원,대전광역시 서구 관저서로 47 (관저동),36.2965935,127.3296198,35374,042-542-6363~4,042-542-6365,서부교육청,사립,N,
479,유,U,유성원광유치원,대전광역시 유성구 유성대로642번길 63 (구암동),36.3502862,127.3317323,34181,042-825-2533,042-825-2534,서부교육청,사립,N,
482,유,U,유성초등학교병설유치원,대전광역시 유성구  장대로71번길 12(장대동),36.3623719,127.3333651,34164,042-822-5129,042-825-3647,서부교육청,공립,Y,http://yuseonges.djsch.kr
483,유,U,은빛유치원,대전광역시 서구 둔산북로 160 (둔산동),36.3546408,127.3921226,35247,042-483-0143,042-483-0144,서부교육청,사립,N,
484,유,U,은새유치원,대전광역시 서구 계룡로571번길 34 (탄방동),36.343592,127.3870564,35263,042-484-8181,042-484-8183,서부교육청,사립,N,
485,유,U,은아유치원,대전광역시 서구 가수원로 72 (가수원동),36.3017893,127.3515366,35386,042-541-3057,042-541-3059,서부교육청,사립,N,
486,유,U,은정유치원,대전광역시 유성구 노은동로87번길 23 (노은동),36.3682143,127.3220969,34091,042-476-1388,042-476-1389,서부교육청,사립,N,
487,유,U,은하수유치원,대전광역시 서구 둔산남로 15 (둔산동),36.3495719,127.3796083,35234,042-485-3347,042-485-3348,서부교육청,사립,N,
488,유,U,일곱색깔유치원,대전광역시 서구  계룡로326번길 147(갈마동),36.3475085,127.3657989,35277,042-524-6264,042-536-6264,서부교육청,사립,Y,http://cafe.daum.net/sevencolors5246264
490,유,U,장동초등학교병설유치원,대전광역시 대덕구 장동로 223-37 (장동),36.4149996,127.4356646,34345,042-636-5290,042-626-5670,동부교육청,공립,Y,http://jdes.djsch.kr
491,유,U,장미유치원,대전광역시 대덕구 아리랑로197번길 48 (읍내동),36.3760747,127.4259545,34355,042-632-3939,042-632-5657,동부교육청,사립,N,
492,유,U,전원유치원,대전광역시 유성구 현충원로480번길 20 (구암동),36.3578957,127.3239413,34156,042-822-0502,042-822-7895,서부교육청,사립,N,
493,유,U,정원유치원,대전광역시 유성구 덕명동로16번길 77 (구암동),36.3535585,127.3211183,34155,042-823-2271,042-823-0990,서부교육청,사립,N,
495,유,U,중앙유치원,대전광역시 중구 선화로43번길 99 (선화동),36.3310809,127.4144267,34849,042-253-7639,042-253-7637,동부교육청,공립,Y,http://joongangkg.djsch.kr
497,유,U,즐거운유치원,대전광역시 중구 학고개로34번길 31 (옥계동),36.2968999,127.4520289,35075,042-272-3200,042-271-3200,동부교육청,사립,N,
498,유,U,지니어스유치원,대전광역시 서구 월평서로 17 (월평동),36.3550427,127.3573168,35226,042-487-0033,042-472-0924,서부교육청,사립,N,
501,유,U,진잠초등학교병설유치원,대전광역시 유성구  진잠로59번길 53(원내동),36.2991404,127.3149893,34229,042-544-3448,042-543-5097,서부교육청,공립,Y,http://jinjames.djsch.kr
502,유,U,참사랑유치원,대전광역시 대덕구 계족산로 135 (송촌동),36.3670623,127.4438538,34402,042-635-0506,042-635-7750,동부교육청,사립,N,
503,유,U,천사유치원,대전광역시 동구 동구청로 206 (판암동),36.316122,127.4568111,34676,042-286-1004,042-286-2766,동부교육청,사립,N,
504,유,U,청구나래유치원,대전광역시 유성구 엑스포로 501 (전민동),36.4016454,127.4034727,34048,042-863-3965,042-863-3790,서부교육청,사립,N,
507,유,U,청아유치원,대전광역시 서구 동서대로 967 (내동),36.3357779,127.3700411,35285,042-531-6166,042-531-6167,서부교육청,사립,N,
513,유,U,침례신학대학교부속유치원,대전광역시 유성구 북유성대로 190 (하기동),36.3876026,127.3321744,34098,042-825-1256,042-825-1258,서부교육청,사립,N,
514,유,U,큰솔유치원,대전광역시 유성구 반석로142번길 15-41 (반석동),36.389328,127.299557,34065,042-822-3550,042-822-3516,서부교육청,사립,N,
515,유,U,태평유치원,대전광역시 중구 평촌로 111 (태평동),36.3238795,127.3992657,34895,042-535-6258,042-535-6259,동부교육청,사립,N,
516,유,U,토들러유치원,대전광역시 유성구 진잠로160번길 41,36.3020097,127.3199902,34227,042-542-2259,042-544-2258,서부교육청,사립,N,
517,유,U,토마토아트유치원,대전광역시 중구 계백로1571번길 10 (유천동),36.3189019,127.3944294,34891,042-532-8469,042-532-8479,동부교육청,사립,N,
518,유,U,톰지유치원,대전광역시 서구 계룡로536번길 9 (괴정동),36.3417011,127.3827063,35268,042-535-1777,042-537-4060,서부교육청,사립,N,
519,유,U,트리풀유치원,대전광역시 유성구 상대남로 26 (상대동),36.3404981,127.3350175,34200,042-823-5355,042-823-5955,서부교육청,사립,N,
520,유,U,펀키즈유치원,대전광역시 서구 도안동로 77 (가수원동),36.3100512,127.3492934,35367,042-542-9114,042-542-9112,서부교육청,사립,N,
521,유,U,평화유치원,대전광역시 서구 월평중로13번길 53 (월평동),36.3554745,127.3607093,35225,042-486-6015,042-483-1744,서부교육청,사립,N,
522,유,U,폴스유치원,대전광역시 대덕구 동춘당로 178 (법동),36.3689211,127.4311365,34398,042-622-0808,042-622-0898,동부교육청,사립,N,
523,유,U,푸른나라유치원,대전광역시 동구 동부로 73번길 80 (판암동),36.3252643,127.4587881,34662,042-284-6789,042-284-5354,동부교육청,사립,N,
524,유,U,푸른유치원,대전광역시 대덕구 우암동로 19 (비래동),36.3597846,127.4520285,34414,042-626-0250,042-626-0250,동부교육청,사립,N,
525,유,U,프렌즈유치원,대전광역시 서구 원도안로 25번길 97 (가수원동),36.3165224,127.3446659,35366,042-716-1212,042-716-1213,서부교육청,사립,N,
526,유,U,피노키오유치원,대전광역시 대덕구 동춘당로 160 (법동),36.3689988,127.434585,34399,042-623-0009,042-334-9513,동부교육청,사립,N,
527,유,U,피피쿠스리틀킨더유치원,대전광역시 서구 동서대로1005번길 106 (내동),36.3363475,127.3779621,35288,042-532-6770,042-532-6771,서부교육청,사립,N,
528,유,U,하나빛캐슬유치원,대전광역시 중구 대둔산로323번길 51 (사정동),36.2967151,127.3833627,35081,042-587-8867,042-587-8866,동부교육청,사립,N,
529,유,U,하람유치원,대전광역시 동구 삼정로 46 (삼정동),36.3172487,127.468461,34678,042-272-4700,042-272-4701,동부교육청,사립,N,
530,유,U,하랑유치원,대전광역시 유성구 어은로 57 (어은동),36.3626422,127.3553395,34140,042-862-2038,042-862-2031,서부교육청,사립,N,
531,유,U,하은유치원,대전광역시 유성구 상대로 17 (상대동),36.3431751,127.3417535,34198,042-710-5670,042-825-5680,서부교육청,사립,N,
532,유,U,하이캠유치원,대전광역시 서구 계룡로325번길 16 (월평동),36.3551118,127.3655333,35224,042-489-0116,042-489-0233,서부교육청,사립,N,
534,유,U,학하초등학교병설유치원,대전광역시 유성구 진잠옛로 165 (학하동),36.3345274,127.3120909,34212,042-825-0527,042-825-0528,서부교육청,공립,Y,http://hakhaes.djsch.kr
535,유,U,한나유치원,대전광역시 대덕구 덕암로159번길 30 (덕암동),36.4353636,127.420565,34333,042-936-9779,042-367-0807,동부교육청,사립,N,
540,유,U,한솔유치원,대전광역시 유성구 송강로 15 (송강동),36.4319724,127.3854375,34010,042-934-4867,042-933-3788,서부교육청,사립,N,
541,유,U,한양유치원,대전광역시 서구 계룡로571번길 65 (탄방동),36.3447379,127.3866528,35262,042-488-0082,042-488-0083,서부교육청,사립,N,
542,유,U,한울유치원,대전광역시 유성구 가정로 43 (신성동),36.3856289,127.3473357,34118,042-862-2039,042-863-9269,서부교육청,사립,N,
543,유,U,해나라유치원,대전광역시 대덕구 덕암로195번길 37 (덕암동),36.4381723,127.4208296,34333,042-935-1212,042-931-1212,동부교육청,사립,N,
544,유,U,해누리유치원,대전광역시 동구 계족로417번길 49 (홍도동),36.3488925,127.4293682,34553,042-639-3355,042-639-1255,동부교육청,사립,N,
545,유,U,해맑은유치원,대전광역시 대덕구 계족로663번길 29-14 (법동),36.369857,127.4270733,34385,042-625-3315,042-625-8815,동부교육청,사립,N,
546,유,U,해바라기유치원,대전광역시 중구 목중로26번길 29 (중촌동),36.3379271,127.41136,34812,042-255-9993,042-255-1314,동부교육청,사립,N,
547,유,U,행복한천사유치원,대전광역시 중구 유천로102번길 35 (유천동),36.3222094,127.3983385,34897,042-534-1004,042-534-1014,동부교육청,사립,N,
548,유,U,혜원유치원,대전광역시 대덕구 신상로 12 (비래동),36.3547399,127.4560705,34416,042-622-2887,042-636-7904,동부교육청,사립,N,
549,유,U,혜원유치원,대전광역시 유성구 배울2로 3 (관평동),36.4234429,127.385043,34021,042-935-8158,042-935-8159,서부교육청,사립,N,
550,유,U,혜천유치원,대전광역시 서구 혜천로 100 (복수동),36.3028797,127.3753808,35262,042-582-6767,042-582-7877,서부교육청,사립,N,
551,유,U,호동유치원,대전광역시 중구 모암로30번길 7-9 (호동),36.3023149,127.447388,35070,042-272-4661,042-285-5600,동부교육청,사립,N,
552,유,U,호반유치원,대전광역시 유성구 계룡로132번길 55 (봉명동),36.3544642,127.3513373,34189,042-716-7256,042-716-7257,서부교육청,사립,N,
555,유,U,호수유치원,대전광역시 중구 동서대로1365번길 13 (목동),36.3310207,127.4084146,34825,042-257-6710,042-254-8004,동부교육청,사립,N,
556,유,U,홍도유치원,대전광역시 동구 홍도로 39번길 37 (홍도동),36.3480494,127.4266594,34554,042-636-6745,042-634-6745,동부교육청,사립,N,
557,유,U,화랑유치원,대전광역시 유성구 자운로97번길 433 (추목동),36.4149951,127.3372643,34059,042-863-0370,042-863-6914,서부교육청,사립,N,
560,유,U,회덕초등학교병설유치원,대전광역시 대덕구 대전로 1350 (읍내동),36.3748114,127.4217054,34360,042-632-7542,042-632-9159,동부교육청,공립,Y,http://hoedeokes.djsch.kr
562,유,U,흥도초등학교병설유치원,대전광역시 유성구 원신흥남로 20 (원신흥동),36.3340797,127.3387187,34195,042-822-5062,042-823-8945,서부교육청,공립,Y,http://heungdoes.djsch.kr
2,중,J,가수원중학교,대전광역시 서구 가수원로 26 (가수원동),36.2985059,127.3546645,35389,042-541-0145,042-541-6623,서부교육청,공립,Y,http://gswms.djsch.kr
5,중,J,갈마중학교,대전광역시 서구 계룡로326번길 138 (갈마동),36.3473437,127.3646182,35277,042-714-2240,042-714-2220,서부교육청,공립,Y,http://galmams.djsch.kr
16,중,J,기성중학교,대전광역시 서구 장안로 54 (흑석동),36.2511292,127.3411833,35426,042-585-5303,042-585-5305,서부교육청,공립,Y,http://giseong21ms.djsch.kr
43,중,J,대덕중학교,대전광역시 유성구 대덕대로 515 (가정동),36.3807807,127.368274,34131,042-861-0250,042-862-3632,서부교육청,공립,Y,http://daedeokms.djsch.kr
49,중,J,대전가양중학교,대전광역시 동구 비래서로62번길 100 (가양동),36.3507701,127.448434,34531,042-620-1500,042-626-3397,동부교육청,공립,Y,http://gyms.djsch.kr
52,중,J,대전가오중학교,대전광역시 동구 은어송로 79 (가오동),36.3086459,127.4571636,34680,042-282-0425,042-285-0085,동부교육청,공립,Y,http://gaoms.djsch.kr
60,중,J,대전갑천중학교,대전광역시 서구 월평동로 80 (월평동),36.3620065,127.3693183,35216,042-488-8600,042-485-1999,서부교육청,공립,Y,http://gapcheonms.djsch.kr
62,중,J,대전경덕중학교,대전광역시 대덕구 동산초교로63번길 12 (오정동),36.3497526,127.4228656,34432,042-632-7826,042-621-7827,동부교육청,사립,Y,http://gdms.djsch.kr
69,중,J,대전관저중학교,대전광역시 서구 관저동로 143 (관저동),36.3054996,127.3396462,35359,042-545-4762,042-545-4762,서부교육청,공립,Y,http://gjms.djsch.kr
72,중,J,대전관평중학교,대전광역시 유성구 테크노4로 132 (관평동),36.4237326,127.3870581,34021,042-671-0810,042-671-0820,서부교육청,공립,Y,http://gpms.djsch.kr
76,중,J,대전괴정중학교,대전광역시 서구 가장로 15 (괴정동),36.3400127,127.3791505,35291,042-528-9050,042-537-9057,서부교육청,공립,Y,http://goejeong35ms.djsch.kr
80,중,J,대전구봉중학교,대전광역시 서구 관저서로 86 (관저동),36.3003602,127.3303303,35372,042-544-7563,042-544-7558,서부교육청,공립,Y,http://gubongms.djsch.kr
84,중,J,대전글꽃중학교,대전광역시 중구 계룡로918번길 103 (문화동),36.3184573,127.4091354,34957,042-250-0307,042-250-0347,동부교육청,공립,Y,http://gkms.djsch.kr
89,중,J,대전남선중학교,대전광역시 서구 월평북로 41 (월평동),36.3631937,127.3724533,35211,042-484-6214,042-484-6215,서부교육청,공립,Y,http://namseonms.djsch.kr
90,중,J,대전내동중학교,대전광역시 서구 배재로 263 (변동),36.3321436,127.3704747,35343,042-534-6154,042-522-2849,서부교육청,공립,Y,http://djnaedongms.djsch.kr
94,중,J,대전노은중학교,대전광역시 유성구 노은동로 104 (노은동),36.3700295,127.3241862,34084,042-479-5506,042-476-3158,서부교육청,공립,Y,http://noeunms.djsch.kr
96,중,J,대전느리울중학교,대전광역시 서구 관저중로64번길 84 (관저동),36.2973557,127.3396191,35382,042-544-0616,042-544-0619,서부교육청,공립,Y,http://djnrums.djsch.kr
101,중,J,대전대문중학교,대전광역시 중구 송리로 33 (문화동),36.3078414,127.4009711,35008,042-583-2596,042-583-2597,동부교육청,공립,Y,http://daemunms.djsch.kr
105,중,J,대전대성여자중학교,대전광역시 동구 대성2길 20 (가양동),36.3377093,127.4406962,34601,042-626-3601,042-672-3730,동부교육청,사립,Y,http://dsgms.djsch.kr
106,중,J,대전대성중학교,대전광역시 중구 목동로 23 (목동),36.3325444,127.4074351,34825,042-250-6000,042-254-2604,동부교육청,사립,Y,http://dsmms.djsch.kr
108,중,J,대전대신중학교,대전광역시 서구 오량1길 98 (복수동),36.3090805,127.3811451,35406,042-585-5908,042-585-5907,서부교육청,사립,Y,http://djdsms.djsch.kr
115,중,J,대전대청중학교,대전광역시 대덕구 신탄진동로 81 (신탄진동),36.4489023,127.4370322,34308,042-934-8859,042-934-8858,동부교육청,공립,Y,http://djdcms.djsch.kr
116,중,J,대전대화중학교,대전광역시 대덕구 대오길 9 (오정동),36.3615612,127.4144603,34379,042-634-4624,042-633-6451,동부교육청,공립,Y,http://daehwams.djsch.kr
120,중,J,대전덕명중학교,대전광역시 유성구 학하중앙로 61 (덕명동),36.3456998,127.3031694,34159,042-825-1606,042-825-1678,서부교육청,공립,Y,http://ddmms.djsch.kr
121,중,J,대전도마중학교,대전광역시 서구 도솔2길 22 (도마동),36.3190381,127.3720891,35338,042-525-6892,042-533-6397,서부교육청,공립,Y,http://domams.djsch.kr
127,중,J,대전도안중학교,대전광역시 서구 원도안로 160 (도안동),36.3178158,127.3456269,35355,042-545-9701,042-545-9705,서부교육청,공립,Y,http://doanms.djsch.kr
134,중,J,대전동산중학교,대전광역시 중구 문화로 183 (문화동),36.3160523,127.4045008,34960,042-587-2700,042-587-2710,동부교육청,사립,Y,http://djdongsanms.djsch.kr
139,중,J,대전동화중학교,대전광역시 유성구 관평2로 43 (관평동),36.4229545,127.3896168,34020,042-935-9614,042-935-9616,서부교육청,공립,Y,http://djdhms.djsch.kr
142,중,J,대전두리중학교,대전광역시 유성구 와룡로 37 (송강동),36.4292447,127.3798894,34005,042-935-8613,042-935-8618,서부교육청,공립,Y,http://durims.djsch.kr
146,중,J,대전둔산중학교,대전광역시 서구 갈마역로25번길 70 (갈마동),36.3532261,127.3721356,35231,042-486-6146,042-486-6149,서부교육청,공립,Y,http://dunsanms.djsch.kr
149,중,J,대전둔원중학교,대전광역시 서구 괴정로11번길 73 (갈마동),36.3425622,127.3765201,35266,042-531-2842,042-531-2842,서부교육청,공립,Y,http://djdwms.djsch.kr
153,중,J,대전만년중학교,대전광역시 서구 만년남로 17 (만년동),36.3669903,127.3759932,35200,042-486-8234,042-486-8231,서부교육청,공립,Y,http://mannyonms.djsch.kr
156,중,J,대전매봉중학교,대전광역시 대덕구 선비마을로 165 (송촌동),36.3693664,127.4360924,34399,042-620-0003,042-635-2475,동부교육청,공립,Y,http://maebongms.djsch.kr
167,중,J,대전문정중학교,대전광역시 서구 둔산북로 232-11 (둔산동),36.3555537,127.4012241,35245,042-486-0822,042-487-2071,서부교육청,공립,Y,http://munjeongms.djsch.kr
169,중,J,대전문지중학교,대전광역시 유성구 전민로 53 (전민동),36.3967451,127.3991068,34053,042-863-0923,042-861-5028,서부교육청,공립,Y,http://munjims.djsch.kr
172,중,J,대전문화여자중학교,대전광역시 중구 문화로218번길 63 (문화동),36.3128386,127.41017,35018,042-580-1210,042-580-1250,동부교육청,공립,Y,http://munhwa-gms.djsch.kr
180,중,J,대전버드내중학교,대전광역시 서구 유등로 285 (도마동),36.3190397,127.3707226,35332,042-531-1646,042-527-2053,서부교육청,공립,Y,http://bdnms.djsch.kr
183,중,J,대전법동중학교,대전광역시 대덕구 쌍청당로 55 (법동),36.366608,127.4331046,34406,042-336-3005,042-634-4506,동부교육청,공립,Y,http://beopdongms.djsch.kr
185,중,J,대전변동중학교,대전광역시 서구 도산로181번길 39 (변동),36.3245853,127.3757033,35324,042-346-3013,042-523-3422,서부교육청,공립,Y,http://bdms.djsch.kr
193,중,J,대전봉명중학교,대전광역시 유성구 계룡로132번길 71 (봉명동),36.3550332,127.336964,34189,042-826-6872,042-826-6878,서부교육청,공립,Y,http://djbmms.djsch.kr
196,중,J,대전봉산중학교,대전광역시 서구 배재로262번길 60 (변동),36.330984,127.373106,35326,042-524-4585,042-522-4584,서부교육청,공립,Y,http://djbsms.djsch.kr
199,중,J,대전봉우중학교,대전광역시 서구 관저로 102 (관저동),36.2986147,127.3327913,35373,042-543-7325,042-543-7327,서부교육청,공립,Y,http://bongwooms.djsch.kr
207,중,J,대전삼육중학교,대전광역시 서구 도림1길 15 (도마동),36.3118069,127.3728654,35340,042-522-0037,042-522-0035,서부교육청,사립,Y,http://djsahmyookms.djsch.kr
209,중,J,대전삼천중학교,대전광역시 서구 문정로 271 (둔산동),36.3584888,127.3941852,35207,042-483-6733,042-489-6630,서부교육청,공립,Y,http://www.samchun.ms.kr/
218,중,J,대전새미래중학교,대전광역시 유성구 지족동로 55 (지족동),36.3886608,127.3077026,34074,042-828-3800,042-828-3810,서부교육청,공립,Y,http://smrms.djsch.kr
227,중,J,대전서중학교,대전광역시 서구 동서대로997번길 57 (괴정동),36.3359799,127.3740184,35286,042-522-4601,042-535-5001,서부교육청,공립,Y,http://westms.djsch.kr
244,중,J,대전송강중학교,대전광역시 유성구 와룡로 122 (송강동),36.4377573,127.3817602,34008,042-934-7457,042-934-7458,서부교육청,공립,Y,http://songgangms.djsch.kr
250,중,J,대전송촌중학교,대전광역시 대덕구 계족산로 110 (송촌동),36.3639306,127.4434994,34404,042-627-4932,042-627-4934,동부교육청,공립,Y,http://songchonms.djsch.kr
257,중,J,대전신계중학교,대전광역시 서구 복수동로 40-30 (복수동),36.301926,127.3770764,35412,042-580-8000,042-586-4151,서부교육청,공립,Y,http://singyems.djsch.kr
261,중,J,대전신일여자중학교,대전광역시 중구 부사로32번길 27 (부사동),36.3093744,127.4344724,35058,042-250-8500,042-221-1781,동부교육청,사립,Y,http://shinilms.djsch.kr
266,중,J,대전어은중학교,대전광역시 유성구 농대로 56 (어은동),36.3656214,127.3528081,34140,042-861-9763,042-863-1709,서부교육청,공립,Y,http://eoeunms.djsch.kr
270,중,J,대전여자중학교,대전광역시 중구 보문로230번길 69 (대흥동),36.3250781,127.4262162,34919,042-253-4771,042-222-1901,동부교육청,공립,Y,http://djgms.djsch.kr
278,중,J,대전외삼중학교,대전광역시 유성구 반석동로 75 (반석동),36.3940636,127.3101399,34067,042-824-6680,042-824-6680,서부교육청,공립,Y,http://oesamms.djsch.kr
282,중,J,대전용운중학교,대전광역시 동구 용운로 208 (용운동),36.325395,127.4649997,34522,042-284-6652,042-285-2541,동부교육청,공립,Y,http://yongunms.djsch.kr
285,중,J,대전용전중학교,대전광역시 대덕구 한밭대로1146번길 46 (중리동),36.356369,127.4253861,34427,042-620-1905,042-636-5106,동부교육청,공립,Y,http://yjms.djsch.kr
294,중,J,대전월평중학교,대전광역시 서구 월평동로 21 (월평동),36.3564024,127.367573,35223,042-486-3184,042-485-6811,서부교육청,공립,Y,http://wpms.djsch.kr
301,중,J,대전은어송중학교,대전광역시 동구 동구청로 26 (대성동),36.3001045,127.4608803,34698,042-281-5500,042-286-0269,동부교육청,공립,Y,http://eesms.djsch.kr
307,중,J,대전자운중학교,대전광역시 유성구 자운로97번길 356 (신봉동),36.4121815,127.3382538,34059,042-867-9370,042-867-9372,서부교육청,공립,Y,http://jaunms.djsch.kr
309,중,J,대전장대중학교,대전광역시 유성구 문화원로 26 (장대동),36.3601011,127.3387741,34171,042-824-6718,042-824-6712,서부교육청,공립,Y,http://jangdaems.djsch.kr
313,중,J,대전전민중학교,대전광역시 유성구 엑스포로466번길 97 (전민동),36.4014628,127.4055288,34049,042-863-5795,042-861-3274,서부교육청,공립,Y,http://djjmms.djsch.kr
316,중,J,대전정림중학교,대전광역시 서구 괴곡길 70 (괴곡동),36.2946505,127.361413,35416,042-586-8102,042-586-8102,서부교육청,공립,Y,http://jeongrimms.djsch.kr
325,중,J,대전중앙중학교,대전광역시 중구 대종로 634 (중촌동),36.3388858,127.4124062,34804,042-253-4382,042-253-6544,동부교육청,사립,Y,http://jungangms.djsch.kr
329,중,J,대전중학교,대전광역시 중구 수도산로 9 (대흥동),36.3209051,127.4248435,34932,042-250-7800,042-250-7898,동부교육청,공립,Y,http://djms.djsch.kr
331,중,J,대전지족중학교,대전광역시 유성구 노은동로 193 (지족동),36.3781951,127.3205926,34083,042-477-4640,042-477-4645,서부교육청,공립,Y,http://jijokms.djsch.kr
336,중,J,대전체육중학교,대전광역시 유성구 원신흥로40번길 6 (원신흥동),36.3367031,127.3430199,34195,042-822-1527,042-822-1527,서부교육청,공립,Y,http://djcheyukhs.djsch.kr
337,중,J,대전탄방중학교,대전광역시 서구 문정로 181 (둔산동),36.3505154,127.3943428,35249,042-380-3131,042-471-5759,서부교육청,공립,Y,http://tbms.djsch.kr
339,중,J,대전태평중학교,대전광역시 중구 수침로111번길 12 (태평동),36.329963,127.397477,34877,042-537-0866,042-537-0869,동부교육청,공립,Y,http://tp02ms.djsch.kr
344,중,J,대전하기중학교,대전광역시 유성구 송림로48번길 6-30 (하기동),36.386011,127.3222467,34098,042-824-8370,042-824-8369,서부교육청,공립,Y,http://hagims.djsch.kr
362,중,J,동대전중학교,대전광역시 동구 충정로 73-6 (가양동),36.3451472,127.4559044,34505,042-330-8800,042-623-5666,동부교육청,공립,Y,http://dongdaejeonms.djsch.kr
364,중,J,동명중학교,대전광역시 중구 사득로54번길 29 (석교동),36.3085202,127.4389137,35059,042-272-6696,042-283-3790,동부교육청,사립,Y,http://dongmyungms.djsch.kr
368,중,J,동방여자중학교,대전광역시 서구 복수중로 27 (복수동),36.3064728,127.3748333,35404,042-580-3710,042-580-3709,서부교육청,사립,Y,http://dongbangms.djsch.kr
369,중,J,동신중학교,대전광역시 동구 동부로 56-22 (판암동),36.3198772,127.459518,34674,042-283-4081,042-274-1001,동부교육청,공립,Y,http://dongsinms.djsch.kr
398,중,J,보문중학교,대전광역시 동구 우암로 57 (삼성동),36.3368587,127.4235438,34619,042-623-2464,042-672-9365,동부교육청,사립,Y,http://bomoonms.djsch.kr
432,중,J,성덕중학교,대전광역시 유성구 신성로102번길 19 (신성동),36.3912013,127.3513209,34116,042-861-6706,042-861-6706,서부교육청,사립,Y,http://sungdukms.djsch.kr
446,중,J,신탄중앙중학교,대전광역시 대덕구 덕암로233번길 24 (덕암동),36.4419308,127.4225931,34330,042-331-3333,042-931-1019,동부교육청,공립,Y,http://sintanjungangms.djsch.kr
450,중,J,신탄진중학교,대전광역시 대덕구 석봉로 15 (석봉동),36.4476358,127.4228219,34317,042-930-0600,042-931-0452,동부교육청,사립,Y,http://stjms.djsch.kr
465,중,J,오정중학교,대전광역시 대덕구 한남로150번길 135 (오정동),36.3514945,127.4080926,34441,042-627-0602,042-623-4273,동부교육청,공립,Y,http://ojeongms.djsch.kr
474,중,J,우송중학교,대전광역시 동구 동대전로131번길 53 (자양동),36.3350167,127.4432897,34609,042-620-5000,042-620-5280,동부교육청,사립,Y,http://woosongms.djsch.kr
480,중,J,유성중학교,대전광역시 유성구 상대로 33 (상대동),36.3458283,127.3347743,34198,042-822-1605,042-825-8049,서부교육청,공립,Y,http://yuseongms.djsch.kr
494,중,J,중리중학교,대전광역시 대덕구 중리동로 85 (중리동),36.3663128,127.4271461,34389,042-620-3014,042-625-1749,동부교육청,공립,Y,http://jungnims.djsch.kr
499,중,J,진잠중학교,대전광역시 유성구 진잠로 60-23 (원내동),36.2969673,127.3185722,34231,042-544-3085,042-543-2809,서부교육청,공립,Y,http://jinjamms.djsch.kr
506,중,J,청란여자중학교,대전광역시 중구 보문로95번길 40 (부사동),36.3105258,127.4296446,35051,042-253-8844,042-253-6008,동부교육청,사립,Y,http://cheongranms.djsch.kr
511,중,J,충남여자중학교,대전광역시 중구 동서대로 1368 (목동),36.3307949,127.4110557,34849,042-280-5300,042-253-9462,동부교육청,공립,Y,http://chungnam-gms.djsch.kr
512,중,J,충남중학교,대전광역시 동구 계족로 123 (신흥동),36.3237145,127.4383549,34641,042-273-1692,042-282-7330,동부교육청,공립,Y,http://chungnamms.djsch.kr
537,중,J,한밭여자중학교,대전광역시 동구 동대전로110번길 74-57 (대동),36.329671,127.4490338,34654,042-623-2372,042-626-9994,동부교육청,공립,Y,http://hanbat-gms.djsch.kr
538,중,J,한밭중학교,대전광역시 동구 태전로 67 (삼성동),36.335598,127.4259497,34624,042-620-3950,042-620-3960,동부교육청,공립,Y,http://hanbatms.djsch.kr
554,중,J,호수돈여자중학교,대전광역시 중구 선화로 50 (용두동),36.3264621,127.4146127,34859,042-221-1673,042-221-1677,동부교육청,사립,Y,http://holstonms.djsch.kr
558,중,J,회덕중학교,대전광역시 대덕구 신탄진로218번길 22 (와동),36.4008763,127.4256428,34346,042-621-3073,042-621-3071,동부교육청,공립,Y,http://hoedeokms.djsch.kr
3,초,C,가수원초등학교,대전광역시 서구  벌곡로 1359 (가수원동),36.3029292,127.3534059,35387,042-541-1337,042-541-6415,서부교육청,공립,Y,http://gasuwones.djsch.kr
9,초,C,구즉초등학교,대전광역시 유성구  구룡달전로 34 (봉산동),36.4406044,127.3824649,34006,042-935-4005,042-935-6599,서부교육청,공립,Y,http://gjes.djsch.kr
14,초,C,금성초등학교,대전광역시 유성구 신성로72번길 5 (신성동),36.3894242,127.3500226,34116,042-861-8234,042-863-0709,서부교육청,공립,Y,http://geumsunges.djsch.kr
17,초,C,기성초등학교,대전광역시 서구  기성초교길 42(매노동),36.248798,127.3376612,35426,042-585-4611,042-585-4605,서부교육청,공립,Y,http://giseonges.djsch.kr
18,초,C,기성초등학교길헌분교장,대전광역시 서구  당고개길 48(평촌동),36.2417941,127.3161442,35425,042-583-8084,042-585-8094,서부교육청,공립,Y,http://giseonges.djsch.kr
30,초,C,남선초등학교,대전광역시 유성구 계백로93번길 277-29 (송정동),36.2875973,127.2646212,34204,042-825-0895,042-825-0897,서부교육청,공립,Y,http://namsunes.djsch.kr
44,초,C,대덕초등학교,대전광역시 유성구 대덕대로556번길 102 (도룡동),36.3851645,127.3818502,34121,042-861-7615,042-862-4998,서부교육청,공립,Y,http://daedeokes.djsch.kr
45,초,C,대덕초등학교도룡분교,대전광역시 유성구 엑스포로97번길 100 (도룡동),36.3786874,127.3915265,34125,042-861-7614,042-864-4976,서부교육청,공립,Y,http://daedeokes.djsch.kr
50,초,C,대전가양초등학교,대전광역시 동구 가양로 61 (가양동),36.3418801,127.4412412,34593,042-633-1984,042-636-4278,동부교육청,공립,Y,http://djgayanges.djsch.kr
53,초,C,대전가오초등학교,대전광역시 동구 신기로 112 (가오동),36.3102913,127.4586711,34680,042-286-1961,042-286-1967,동부교육청,공립,Y,http://gaoes.djsch.kr
56,초,C,대전가장초등학교,대전광역시 서구  가장로 150(가장동),36.3307119,127.388332,35311,042-527-7604,042-527-7606,서부교육청,공립,Y,http://gajanges.djsch.kr
59,초,C,대전갈마초등학교,대전광역시 서구  월평동로 2(갈마동),36.356774,127.3693282,35227,042-486-1327,042-486-9041,서부교육청,공립,Y,http://galmaes.djsch.kr
61,초,C,대전갑천초등학교,대전광역시 서구  월평동로 61(월평동),36.3607921,127.3676946,35210,042-488-3322,042-488-3325,서부교육청,공립,Y,http://djgces.djsch.kr
63,초,C,대전계산초등학교,대전광역시 유성구  학하서로 74 (계산동),36.3433998,127.3005486,34209,042-826-6180,042-826-6184,서부교육청,공립,Y,http://djkses.djsch.kr
70,초,C,대전관저초등학교,대전광역시 서구  관저동로 161 (관저동),36.3064008,127.3399704,35359,042-545-2676,042-545-2675,서부교육청,공립,Y,http://gwanjeoes.djsch.kr
73,초,C,대전관평초등학교,대전광역시 유성구  테크노4로 132 (관평동),36.4237326,127.3870581,34021,042-671-0062,042-671-0068,서부교육청,공립,Y,http://djgpes.djsch.kr
77,초,C,대전교촌초등학교,대전광역시 유성구 진잠로149번길 42 (교촌동),36.3058894,127.3168032,34225,042-544-0644,042-544-0649,서부교육청,공립,Y,http://kyochones.djsch.kr
81,초,C,대전구봉초등학교,대전광역시 서구  관저로 75 (관저동),36.2997949,127.3299654,35372,042-542-0193,042-542-0194,서부교육청,공립,Y,http://gubonges.djsch.kr
85,초,C,대전글꽃초등학교,대전광역시 중구 계룡로918번길 97 (문화동),36.3186792,127.4102708,34957,042-250-4800,042-251-8216,동부교육청,공립,Y,http://gkes.djsch.kr
87,초,C,대전금동초등학교,대전광역시 서구  관저로 45 (관저동),36.2977253,127.3263858,35371,042-542-3334,042-542-3335,서부교육청,공립,Y,http://geumdonges.djsch.kr
91,초,C,대전내동초등학교,대전광역시 서구 동서대로1063번길 13 (내동),36.3309531,127.3792636,35315,042-536-1017,042-527-7961,서부교육청,공립,Y,http://naedonges.djsch.kr
95,초,C,대전노은초등학교,대전광역시 유성구 노은동로99번길 35 (노은동),36.3688795,127.321476,34091,042-476-1490,042-476-1497,서부교육청,공립,Y,http://djnoeunes.djsch.kr
97,초,C,대전느리울초등학교,대전광역시 서구  관저로 196(관저동),36.298447,127.3441714,35381,042-544-0782,042-544-0785,서부교육청,공립,Y,http://nrues.djsch.kr
99,초,C,대전대동초등학교,대전광역시 동구 대동초등3길 21 (대동),36.3251549,127.4472892,34659,042-283-4711,042-282-2285,동부교육청,공립,Y,http://djdaedonges.djsch.kr
100,초,C,대전대룡초등학교,대전광역시 동구 백룡로 123 (용운동),36.3297552,127.4557975,34526,042-282-9867,042-282-3291,동부교육청,공립,Y,http://dres.djsch.kr
102,초,C,대전대문초등학교,대전광역시 중구 송리로 11 (문화동),36.3064387,127.4007368,35008,042-582-3694,042-582-0714,동부교육청,공립,Y,http://daemunes.djsch.kr
109,초,C,대전대신초등학교,대전광역시 중구 솔밭로16번길 17 (대사동),36.3155985,127.4205516,35042,042-253-3847,042-255-9442,동부교육청,공립,Y,http://djdaesines.djsch.kr
110,초,C,대전대암초등학교,대전광역시 동구 동부로 55-61 (판암동),36.323515,127.4571986,34664,042-285-8232,042-285-0565,동부교육청,공립,Y,http://daeames.djsch.kr
112,초,C,대전대양초등학교,대전광역시 대덕구  송촌로 67(송촌동),36.3614072,127.4402459,34423,042-635-8091,042-635-8094,동부교육청,공립,Y,http://djdyes.djsch.kr
113,초,C,대전대정초등학교,대전광역시 유성구 대정로28번길 55 (대정동),36.3151997,127.3233658,34219,042-545-4385,042-545-4388,서부교육청,공립,Y,http://djes.djsch.kr
117,초,C,대전대화초등학교,대전광역시 대덕구 대화로 242-36 (대화동),36.3625497,127.4113072,34375,042-623-3463,042-626-6738,동부교육청,공립,Y,http://daehwaes.djsch.kr
119,초,C,대전대흥초등학교,대전광역시 중구 수도산로 12 (대흥동),36.3192368,127.4257724,34938,042-252-3317,042-254-1802,동부교육청,공립,Y,http://daehunges.djsch.kr
122,초,C,대전도마초등학교,대전광역시 서구 배재로172번길 23 (도마동),36.3237958,127.3712413,35329,042-532-5414,042-532-5419,서부교육청,공립,Y,http://domaes.djsch.kr
125,초,C,대전도솔초등학교,대전광역시 서구  원도안로 80 (가수원동),36.3165224,127.3446659,35367,042-540-0114,042-544-7399,서부교육청,공립,Y,http://dosoles.djsch.kr
128,초,C,대전도안초등학교,대전광역시 서구  원도안로 200(도안동),36.3216343,127.3446688,35355,042-543-7803,042-543-7124,서부교육청,공립,Y,http://djdaes.djsch.kr
130,초,C,대전동광초등학교,대전광역시 동구 백룡로11번길 20 (자양동),36.3372844,127.449926,34515,042-622-8415,042-627-3395,동부교육청,공립,Y,http://dongkoanges.djsch.kr
131,초,C,대전동도초등학교,대전광역시 대덕구 한남로150번길 27 (오정동),36.3479411,127.4125135,34442,042-624-9362,042-627-5845,동부교육청,공립,Y,http://djdongdoes.djsch.kr
132,초,C,대전동문초등학교,대전광역시 중구 문화로 200 (문화동),36.3142226,127.4068411,34998,042-337-3500,042-337-3599,동부교육청,공립,Y,http://dongmunes.djsch.kr
135,초,C,대전동산초등학교,대전광역시 대덕구 동산초교로63번길 50 (오정동),36.3505409,127.4215039,34432,042-623-3123,042-627-6358,동부교육청,공립,Y,http://djdses.djsch.kr
137,초,C,대전동서초등학교,대전광역시 동구 동서대로 1522 (삼성동),36.3411146,127.4225873,34569,042-639-6130,042-639-6144,동부교육청,공립,Y,http://dongseoes.djsch.kr
140,초,C,대전동화초등학교,대전광역시 유성구  관평2로 43 (관평동),36.4229545,127.3896168,34020,042-935-9739,042-935-9742,서부교육청,공립,Y,http://djdhes.djsch.kr
143,초,C,대전두리초등학교,대전광역시 유성구  와룡로 37 (송강동),36.4292447,127.3798894,34005,042-936-0834,042-936-0838,서부교육청,공립,Y,http://dues.djsch.kr
147,초,C,대전둔산초등학교,대전광역시 서구 둔산로74번길 20 (둔산동),36.3501609,127.3814486,35234,042-486-3903,042-485-7068,서부교육청,공립,Y,http://dunsanes.djsch.kr
150,초,C,대전둔원초등학교,대전광역시 서구 대덕대로112번길 10 (갈마동),36.3429228,127.3749888,35266,042-534-5384,042-534-5385,서부교육청,공립,Y,http://dwes.djsch.kr
151,초,C,대전둔천초등학교,대전광역시 서구  만년로 3(만년동),36.3684026,127.3739393,35201,042-483-4651,042-483-4655,서부교육청,공립,Y,http://duncheones.djsch.kr
154,초,C,대전만년초등학교,대전광역시 서구  만년남로 14(만년동),36.3671313,127.3772881,35202,042-485-5765,042-486-6731,서부교육청,공립,Y,http://mannyeones.djsch.kr
157,초,C,대전매봉초등학교,대전광역시 대덕구  선비마을로 155 (송촌동),36.3693825,127.4374028,34399,042-621-9662,042-621-9664,동부교육청,공립,Y,http://mbes.djsch.kr
159,초,C,대전목동초등학교,대전광역시 중구 목중로19번길 70 (목동),36.3346952,127.4082543,34816,042-253-4040,042-257-5245,동부교육청,공립,Y,http://mokdonges.djsch.kr
161,초,C,대전목상초등학교,대전광역시 대덕구 대덕대로1486번길 117 (목상동),36.4457026,127.412451,34323,042-934-6312,042-934-6314,동부교육청,공립,Y,http://moksanges.djsch.kr
163,초,C,대전목양초등학교,대전광역시 중구 목동로 69 (목동),36.3367817,127.404831,34818,042-257-9574,042-257-9577,동부교육청,공립,Y,http://djmokyanges.djsch.kr
165,초,C,대전문성초등학교,대전광역시 중구 유등천동로292번길 89-14 (산성동),36.3088121,127.3904664,34996,042-583-5341,042-583-5344,동부교육청,공립,Y,http://djmses.djsch.kr
168,초,C,대전문정초등학교,대전광역시 서구  문정로 180(둔산동),36.3502855,127.3961116,35250,042-486-0468,042-487-2071,서부교육청,공립,Y,http://munjeonges.djsch.kr
171,초,C,대전문창초등학교,대전광역시 중구 문창로 55 (부사동),36.3172917,127.4336568,35027,042-257-7666,042-222-2351,동부교육청,공립,Y,http://munchanges.djsch.kr
173,초,C,대전문화초등학교,대전광역시 중구 문화로78번안길 70 (문화동),36.3113634,127.3980978,34992,042-582-4665,042-582-9975,동부교육청,공립,Y,http://moonhwaes.djsch.kr
176,초,C,대전반석초등학교,대전광역시 유성구  반석동로 30 (반석동),36.3899916,127.3130729,34068,042-824-6438,042-824-6441,서부교육청,공립,Y,http://banseok-es.djsch.kr
178,초,C,대전배울초등학교,대전광역시 유성구  배울2로 8 (관평동),36.4216841,127.3842417,34022,042-936-4323,042-936-4328,서부교육청,공립,Y,http://baeules.djsch.kr
179,초,C,대전백운초등학교,대전광역시 서구 계룡로576번길 56 (괴정동),36.3407605,127.3845061,35269,042-536-2104,042-536-2106,서부교육청,공립,Y,http://djbwes.djsch.kr
181,초,C,대전버드내초등학교,대전광역시 중구 태평로 21 (태평동),36.3192504,127.3915311,34890,042-536-1875,042-536-1873,동부교육청,공립,Y,http://budnaees.djsch.kr
184,초,C,대전법동초등학교,대전광역시 대덕구 계족로664번길 74 (법동),36.3695937,127.4323185,34398,042-626-7567,042-633-1085,동부교육청,공립,Y,http://beopdonges.djsch.kr
186,초,C,대전변동초등학교,대전광역시 서구  유등로 373(변동),36.3246095,127.3848534,35317,042-527-7915,042-527-0838,서부교육청,공립,Y,http://bdes.djsch.kr
189,초,C,대전보성초등학교,대전광역시 중구 보문산로141번길 34 (문화동),36.306686,127.3965081,35010,042-584-0030,042-585-6207,동부교육청,공립,Y,http://boses.djsch.kr
190,초,C,대전보운초등학교,대전광역시 중구 대종로315번길 42 (부사동),36.3143325,127.4322483,35023,042-257-3096,042-257-3246,동부교육청,공립,Y,http://bounes.djsch.kr
192,초,C,대전복수초등학교,대전광역시 서구 복수중로34번길 29 (복수동),36.307501,127.3775666,35404,042-580-3104,042-585-3125,서부교육청,공립,Y,http://boksues.djsch.kr
194,초,C,대전봉명초등학교,대전광역시 유성구 계룡로132번길 62 (봉명동),36.3550332,127.336964,34188,042-820-8880,042-820-8888,서부교육청,공립,Y,http://djbmes.djsch.kr
197,초,C,대전봉산초등학교,대전광역시 서구 신갈마로141번길 45 (갈마동),36.345201,127.365724,35281,042-523-0101,042-531-5511,서부교육청,공립,Y,http://bongsanes.djsch.kr
200,초,C,대전비래초등학교,대전광역시 대덕구 우암로492번안길 65 (비래동),36.3635288,127.452906,34413,042-639-6241,042-639-6248,동부교육청,공립,Y,http://biraees.djsch.kr
202,초,C,대전산성초등학교,대전광역시 중구 대둔산로 332 (사정동),36.2992178,127.3863257,35057,042-581-0662,042-585-0380,동부교육청,공립,Y,http://sanseonges.djsch.kr
205,초,C,대전삼성초등학교,대전광역시 동구 대전로867번길 12 (삼성동),36.3371383,127.4287912,34623,042-627-9780,042-624-3350,동부교육청,공립,Y,http://3stares.djsch.kr
208,초,C,대전삼육초등학교,대전광역시 서구  도림1길 15(도마동),36.3118069,127.3728654,35340,042-537-3674,042-537-3670,서부교육청,사립,Y,http://dj36es.djsch.kr
210,초,C,대전삼천초등학교,대전광역시 서구 둔산북로 232-33 (둔산동),36.3542438,127.4009634,35245,042-486-0584,042-486-3589,서부교육청,공립,Y,http://samcheones.djsch.kr
212,초,C,대전상대초등학교,대전광역시 유성구  월드컵대로 322 (상대동),36.3472735,127.3366076,34199,042-826-1720,042-823-2441,서부교육청,공립,Y,http://djsdes.djsch.kr
214,초,C,대전상원초등학교,대전광역시 유성구  상대서로 46 (상대동),36.3417026,127.3311203,34200,042-824-8545,042-824-8547,서부교육청,공립,Y,http://sangwones.djsch.kr
216,초,C,대전상지초등학교,대전광역시 유성구  노은동로 165 (지족동),36.3752309,127.3221809,34085,042-477-5985,042-477-5988,서부교육청,공립,Y,http://djsangjies.djsch.kr
219,초,C,대전새미래초등학교,대전광역시 유성구  지족로 168 (지족동),36.3874242,127.3131611,34074,042-828-5600,042-828-5699,서부교육청,공립,Y,http://saemiraees.djsch.kr
221,초,C,대전새여울초등학교,대전광역시 대덕구  대덕대로 1585(석봉동),36.4516382,127.4228589,34304,042-939-8505,042-939-8599,동부교육청,공립,Y,http://saeyeoules.djsch.kr
222,초,C,대전샘머리초등학교,대전광역시 서구 유등로 879 (둔산동),36.3632206,127.3932818,35205,042-488-8455,042-488-8457,서부교육청,공립,Y,http://sammeories.djsch.kr
225,초,C,대전서부초등학교,대전광역시 서구 동서대로 968 (변동),36.3331629,127.3694495,35343,042-535-1203,042-523-4549,서부교육청,공립,Y,http://djseobues.djsch.kr
226,초,C,대전서원초등학교,대전광역시 서구 문정로 279 (둔산동),36.3594639,127.3941743,35207,042-488-0975,042-486-9554,서부교육청,공립,Y,http://dswes.djsch.kr
228,초,C,대전석교초등학교,대전광역시 중구 대종로204번길 12 (석교동),36.3082273,127.4456738,35036,042-271-6101,042-271-6103,동부교육청,공립,Y,http://seokgyoes.djsch.kr
230,초,C,대전석봉초등학교,대전광역시 대덕구  신탄진남로 20 (신탄진동),36.4469723,127.4346333,34313,042-934-1291,042-933-2583,동부교육청,공립,Y,http://seokbonges.djsch.kr
231,초,C,대전선암초등학교,대전광역시 서구 관저중로 61 (관저동),36.2974922,127.333991,35373,042-542-2224,042-542-2225,서부교육청,공립,Y,http://djsaes.djsch.kr
233,초,C,대전선유초등학교,대전광역시 서구 관저남로 60,36.2984707,127.3360162,35384,042-540-5100,042-540-5199,서부교육청,공립,N,
235,초,C,대전선화초등학교,대전광역시 중구 선화로 159 (선화동),36.3327965,127.4234162,34831,042-257-7507,042-253-1918,동부교육청,공립,Y,http://seonhwaes.djsch.kr
237,초,C,대전성남초등학교,대전광역시 동구 성남로32번길 5 (성남동),36.3436481,127.4295625,34581,042-625-0052,042-628-2787,동부교육청,공립,Y,http://seongnames.djsch.kr
238,초,C,대전성룡초등학교,대전광역시 서구 갈마역로 125 (월평동),36.3619316,127.3735855,35216,042-483-4252,042-483-4254,서부교육청,공립,Y,http://songryonges.djsch.kr
240,초,C,대전성모초등학교,대전광역시 중구 대흥로 62 (대흥동),36.322771,127.4189482,34943,042-253-6488,042-256-6146,동부교육청,사립,Y,http://seongmoes.djsch.kr
242,초,C,대전성천초등학교,대전광역시 서구  갈마역로 139(월평동),36.3632346,127.3735472,35211,042-483-5026,042-483-5027,서부교육청,공립,Y,http://seongchones.djsch.kr
245,초,C,대전송강초등학교,대전광역시 유성구 송강로42번길 6 (송강동),36.4344058,127.3844067,34008,042-934-7322,042-934-7324,서부교육청,공립,Y,http://s-ganges.djsch.kr
247,초,C,대전송림초등학교,대전광역시 유성구 노은로410번길 123-14 (하기동),36.3888182,127.3323123,34094,042-824-3929,042-824-3955,서부교육청,공립,Y,http://djsonglimes.djsch.kr
251,초,C,대전송촌초등학교,대전광역시 대덕구 동춘당로54번길 35 (송촌동),36.3648203,127.4439321,34404,042-621-9042,042-621-9049,동부교육청,공립,Y,http://djsces.djsch.kr
253,초,C,대전수미초등학교,대전광역시 서구  괴곡길 42(괴곡동),36.2946505,127.361413,35416,042-581-5400,042-581-5426,서부교육청,공립,Y,http://sumies.djsch.kr
255,초,C,대전수정초등학교,대전광역시 유성구 노은서로 62 (노은동),36.365839,127.3134736,34145,042-828-5300,042-822-5304,서부교육청,공립,Y,http://dsjes.djsch.kr
258,초,C,대전신계초등학교,대전광역시 서구  복수동로 26(복수동),36.3018897,127.3780576,35412,042-586-5869,042-586-5383,서부교육청,공립,Y,http://djsingyees.djsch.kr
262,초,C,대전신평초등학교,대전광역시 중구 유등천동로 478 (태평동),36.3207211,127.3881032,34885,042-534-9715,042-527-8573,동부교육청,공립,Y,http://sinpyunges.djsch.kr
264,초,C,대전신흥초등학교,대전광역시 동구 신흥초등길 21 (신흥동),36.3258138,127.4403346,34637,042-280-5600,042-283-9471,동부교육청,공립,Y,http://sinheunges.djsch.kr
265,초,C,대전양지초등학교,대전광역시 대덕구  쌍청당로 45(법동),36.3653598,127.433692,34406,042-631-0270,042-634-8763,동부교육청,공립,Y,http://yjes.djsch.kr
267,초,C,대전어은초등학교,대전광역시 유성구  농대로 46 (어은동),36.364846,127.3539032,34140,042-879-0704,042-863-3205,서부교육청,공립,Y,http://eoeunes.djsch.kr
273,초,C,대전오류초등학교,대전광역시 중구 오류로 46 (오류동),36.32519,127.4046841,34907,042-532-5069,042-532-5090,동부교육청,공립,Y,http://djoryues.djsch.kr
274,초,C,대전옥계초등학교,대전광역시 중구 모암로 35 (옥계동),36.3011924,127.4490549,35070,042-272-2665,042-282-9878,동부교육청,공립,Y,http://djokes.djsch.kr
280,초,C,대전용산초등학교,대전광역시 유성구  배울2로 101(용산동),36.4202163,127.3950711,34031,042-934-8120,042-934-8127,서부교육청,공립,Y,http://yongsanes.djsch.kr
283,초,C,대전용운초등학교,대전광역시 동구 용운로 204 (용운동),36.3263105,127.463755,34522,042-284-0993,042-285-0732,동부교육청,공립,Y,http://yoes.djsch.kr
286,초,C,대전용전초등학교,대전광역시 동구 계족로505번길 49 (용전동),36.3562799,127.4304865,34541,042-622-6938,042-621-0317,동부교육청,공립,Y,http://yongjeones.djsch.kr
290,초,C,대전원신흥초등학교,대전광역시 유성구 원신흥로55번길 37 (원신흥동),36.3394066,127.342827,34193,042-826-9813,042-826-9809,서부교육청,공립,Y,http://wonsinhunges.djsch.kr
291,초,C,대전원앙초등학교,대전광역시 서구  관저북로 97(관저동),36.3112431,127.3370243,35358,042-544-8674,042-544-8676,서부교육청,공립,Y,http://wonanges.djsch.kr
293,초,C,대전원평초등학교,대전광역시 중구 계백로1615번길 46 (유천동),36.3216015,127.3996864,34899,042-522-5981,042-523-4985,동부교육청,공립,Y,http://wonpyeonges.djsch.kr
295,초,C,대전월평초등학교,대전광역시 서구  월평서로 22 (월평동),36.3556126,127.3578837,35221,042-483-3765,042-483-3764,서부교육청,공립,Y,http://woalpyeonges.djsch.kr
297,초,C,대전유천초등학교,대전광역시 서구 제비네6길 69 (도마동),36.3148642,127.3756728,35335,042-522-4605,042-527-0901,서부교육청,공립,Y,http://yuchones.djsch.kr
299,초,C,대전유평초등학교,대전광역시 중구 수침로 123 (태평동),36.329963,127.397477,34877,042-530-0600,042-530-0678,동부교육청,공립,Y,http://yupyunges.djsch.kr
302,초,C,대전은어송초등학교,대전광역시 동구 대전로 396 (대성동),36.291461,127.4625852,34696,042-286-0833,042-286-0834,동부교육청,공립,Y,http://euneosonges.djsch.kr
305,초,C,대전자양초등학교,대전광역시 동구 계족로 184-55 (자양동),36.3400053,127.4481813,34609,042-620-3800,042-620-3838,동부교육청,공립,Y,http://jayanges.djsch.kr
308,초,C,대전자운초등학교,대전광역시 유성구 자운로97번길 380 (신봉동),36.4121815,127.3382538,34059,042-862-6472,042-862-6474,서부교육청,공립,Y,http://jaunes.djsch.kr
310,초,C,대전장대초등학교,대전광역시 유성구 문화원로19번길 16 (장대동),36.3617242,127.3395827,34166,042-824-0490,042-824-0498,서부교육청,공립,Y,http://djjdes.djsch.kr
314,초,C,대전전민초등학교,대전광역시 유성구 엑스포로466번길 42 (전민동),36.3984983,127.4069237,34049,042-864-5492,042-864-5494,서부교육청,공립,Y,http://jeonmines.djsch.kr
317,초,C,대전정림초등학교,대전광역시 서구  정림로 32(정림동),36.303648,127.3665528,35396,042-585-0900,042-585-3812,서부교육청,공립,Y,http://jeonglimes.djsch.kr
319,초,C,대전죽동초등학교,대전광역시 유성구 죽동로 52 (죽동),36.3770612,127.3328339,34127,042-820-3300,042-820-3399,서부교육청,공립,Y,http://jukdonges.djsch.kr
321,초,C,대전중리초등학교,대전광역시 대덕구  중리북로 20(법동),36.3678159,127.4271184,34386,042-621-9442,042-627-3804,동부교육청,공립,Y,http://jungries.djsch.kr
326,초,C,대전중앙초등학교,대전광역시 중구 선화로43번길 99 (선화동),36.3310809,127.4144267,34849,042-221-0305,042-221-0303,동부교육청,공립,Y,http://jaes.djsch.kr
327,초,C,대전중원초등학교,대전광역시 대덕구 중리로64번길 45 (중리동),36.3656638,127.4275041,34389,042-717-7200,042-624-8241,동부교육청,공립,Y,http://djjwes.djsch.kr
328,초,C,대전중촌초등학교,대전광역시 중구 대종로 684 (중촌동),36.3411357,127.4113504,34803,042-256-6980,042-256-3986,동부교육청,공립,Y,http://jungchones.djsch.kr
332,초,C,대전지족초등학교,대전광역시 유성구  노은서로 238 (지족동),36.3805992,127.3173585,34080,042-476-3144,042-476-3148,서부교육청,공립,Y,http://jijokes.djsch.kr
334,초,C,대전천동초등학교,대전광역시 동구 천동초등동길 60 (천동),36.315909,127.4455571,34684,042-273-4321,042-283-4435,동부교육청,공립,Y,http://chdes.djsch.kr
338,초,C,대전탄방초등학교,대전광역시 서구  탄방로 15(탄방동),36.3459363,127.3910094,35256,042-486-7602,042-486-3127,서부교육청,공립,Y,http://tanbanges.djsch.kr
340,초,C,대전태평초등학교,대전광역시 중구 유천로 117 (태평동),36.3229032,127.3950956,34886,042-527-7062,042-527-0866,동부교육청,공립,Y,http://tpes.djsch.kr
341,초,C,대전판암초등학교,대전광역시 동구 옥천로180번길 32 (판암동),36.3152631,127.4607737,34676,042-281-5200,042-283-8872,동부교육청,공립,Y,http://panames.djsch.kr
345,초,C,대전하기초등학교,대전광역시 유성구  송림로19번길 32 (하기동),36.3888161,127.3216884,34061,042-824-8094,042-824-8098,서부교육청,공립,Y,http://hagies.djsch.kr
349,초,C,대전현암초등학교,대전광역시 동구 현암로 19 (삼성동),36.3418804,127.4203113,34567,042-625-2723,042-623-3070,동부교육청,공립,Y,http://hyeonames.djsch.kr
352,초,C,대전화정초등학교,대전광역시 대덕구 한밭대로1024번길 20 (오정동),36.357206,127.4119948,34437,042-627-6177,042-627-0210,동부교육청,공립,Y,http://hjes.djsch.kr
354,초,C,대전흥룡초등학교,대전광역시 동구 동대전로256번길 21 (가양동),36.3453579,127.4478138,34508,042-623-2645,042-626-8207,동부교육청,공립,Y,http://heungryonges.djsch.kr
355,초,C,덕송초등학교,대전광역시 유성구  현충원로 265 (덕명동),36.3613582,127.3016838,34151,042-822-1708,042-825-4404,서부교육청,공립,Y,http://deoksonges.djsch.kr
363,초,C,동대전초등학교,대전광역시 동구 비래서로62번길 60 (가양동),36.3519446,127.4492714,34531,042-624-1014,042-633-5956,동부교육청,공립,Y,http://ddjes.djsch.kr
365,초,C,동명초등학교,대전광역시 동구 천개동로 16 (추동),36.3741268,127.474439,34500,042-274-2044,042-274-1800,동부교육청,공립,Y,http://djdmes.djsch.kr
387,초,C,문지초등학교,대전광역시 유성구  전민로 41(문지동),36.3959197,127.3994966,34053,042-861-4173,042-862-5476,서부교육청,공립,Y,http://munjies.djsch.kr
400,초,C,봉암초등학교,대전광역시 유성구  궁동로 21 (궁동),36.3641745,127.3475817,34137,042-822-2192,042-822-8076,서부교육청,공립,Y,http://bongames.djsch.kr
406,초,C,산내초등학교,대전광역시 동구 산내로 1292 (낭월동),36.2792377,127.469951,34703,042-273-2301,042-272-0233,동부교육청,공립,Y,http://djsnes.djsch.kr
408,초,C,산서초등학교,대전광역시 중구 남달미로 87 (목달동),36.2670647,127.4094249,35086,042-285-7221,042-285-4649,동부교육청,공립,Y,http://djsanseoes.djsch.kr
410,초,C,산흥초등학교,대전광역시 동구 산내로 509 (상소동),36.2294309,127.4562254,34712,042-274-7222,042-273-6883,동부교육청,공립,Y,http://sanheunges.djsch.kr
419,초,C,새일초등학교,대전광역시 대덕구 덕암로125번길 15 (덕암동),36.4316916,127.4195495,34333,042-931-1414,042-931-1415,동부교육청,공립,Y,http://saeiles.djsch.kr
425,초,C,서대전초등학교,대전광역시 중구 선화로 17 (용두동),36.3266915,127.410676,34858,042-255-9937,042-255-4582,동부교육청,공립,Y,http://sdjes.djsch.kr
437,초,C,세천초등학교,대전광역시 동구 옥천로 610-12 (세천동),36.3394118,127.4939028,34501,042-273-4921,042-274-4921,동부교육청,공립,Y,http://secheones.djsch.kr
448,초,C,신탄진용정초등학교,대전광역시 대덕구 대청로 65 (신탄진동),36.4539743,127.4358464,34307,042-932-0183,042-933-6463,동부교육청,공립,Y,http://stj-yongjeonges.djsch.kr
451,초,C,신탄진초등학교,대전광역시 대덕구 석봉로3번길 50 (석봉동),36.449216,127.4223227,34317,042-366-3213,042-366-3214,동부교육청,공립,Y,http://sintanjines.djsch.kr
467,초,C,와동초등학교,대전광역시 대덕구 신탄진로 189 (신대동),36.3999977,127.4204553,34349,042-627-6566,042-627-6568,동부교육청,공립,Y,http://djwadonges.djsch.kr
469,초,C,외삼초등학교,대전광역시 유성구  반석동로 63 (반석동),36.3927409,127.3105094,34069,042-824-2240,042-824-2241,서부교육청,공립,Y,http://oesames.djsch.kr
481,초,C,유성초등학교,대전광역시 유성구 장대로71번길 12 (장대동),36.3623719,127.3333651,34164,042-822-0311,042-825-3647,서부교육청,공립,Y,http://yuseonges.djsch.kr
489,초,C,장동초등학교,대전광역시 대덕구 장동로 223-37 (장동),36.4149996,127.4356646,34345,042-623-3004,042-626-5670,동부교육청,공립,Y,http://jdes.djsch.kr
500,초,C,진잠초등학교,대전광역시 유성구 진잠로59번길 53 (원내동),36.2991404,127.3149893,34229,042-543-3073,042-543-5097,서부교육청,공립,Y,http://jinjames.djsch.kr
533,초,C,학하초등학교,대전광역시 유성구  진잠옛로 165 (학하동),36.3345274,127.3120909,34212,042-825-0525,042-825-0528,서부교육청,공립,Y,http://hakhaes.djsch.kr
539,초,C,한밭초등학교,대전광역시 서구  문정로 221 (둔산동),36.3544859,127.3942853,35247,042-486-9197,042-486-9194,서부교육청,공립,Y,http://hanbates.djsch.kr
559,초,C,회덕초등학교,대전광역시 대덕구  대전로 1350 (읍내동),36.3748114,127.4217054,34360,042-632-9156,042-632-9159,동부교육청,공립,Y,http://hoedeokes.djsch.kr
561,초,C,흥도초등학교,대전광역시 유성구  원신흥남로 20 (원신흥동),36.3340797,127.3387187,34195,042-822-3368,042-823-8945,서부교육청,공립,Y,http://heungdoes.djsch.kr
55,특수,T,대전가원학교,대전광역시 서구 계백로 1095 (가수원동),36.304354,127.3456819,35366,042-545-7788,042-545-8620,시교육청,공립,Y,http://gawonsc.djsch.kr
158,특수,T,대전맹학교,대전광역시 동구 은어송로 95 (가오동),36.3092037,127.4591207,34680,042-280-3501,042-285-5010,시교육청,공립,Y,http://blsc.djsch.kr
241,특수,T,대전성세재활학교,대전광역시 유성구 유성대로298번길 175 (용계동),36.3213718,127.321056,34218,042-540-3400,042-540-3499,시교육청,사립,Y,http://sungsesc.djsch.kr
288,특수,T,대전원명학교,대전광역시 대덕구 대화1길 2 (대화동),36.3657293,127.4131364,34371,042-620-8611,042-621-5075,시교육청,사립,Y,http://wonmyeongsc.djsch.kr
348,특수,T,대전해든학교,대전광역시 대덕구 대청로 232,36.4475715,127.4498534,34315,042-939-8300,042-932-8994,동부교육청,공립,Y,https://haedeunsc.djsch.kr/main.do
351,특수,T,대전혜광학교,대전광역시 동구 은어송로 111 (가오동),36.3092037,127.4591207,34680,042-285-0251,042-285-0255,시교육청,공립,Y,http://hyekwangsc.djsch.kr
